[
  {
    "name": "TOKA #11 Vuzovskii (м. Одеса, Люстдорфська дорога, 140/1)",
    "portsCount": "3",
    "portsComment": "\\n        \\n         Type 1 - невідомий - 14.99 ₴/⚡ Type 1 - невідомий - 14.99 ₴/⚡ Type 1 - невідомий - 14.99 ₴/⚡",
    "lat": 46.411294,
    "lng": 30.727486
  },
  {
    "name": "TOKA #16 KOGA (м. Київ, вул. Генерала Алмазова, 9)",
    "portsCount": "2",
    "portsComment": "\\n        \\n         Type 1 - вільний - 12.99 ₴/⚡ Type 1 - вільний - 12.99 ₴/⚡",
    "lat": 50.428354,
    "lng": 30.541407
  },
  {
    "name": "TOKA #28 Elefant [Nissan] (м. Одеса, вул. Академіка Вільямса, 89)",
    "portsCount": "1",
    "portsComment": "\\n        \\n         Type 1 - невідомий - 14.99 ₴/⚡",
    "lat": 46.388825,
    "lng": 30.710899
  },
  {
    "name": "TOKA #29 METRO (Одеська обл., Одеський р-н, с. Лиманка, просп. Гуляєва полковника, ж/м Дружний, буд.101-м)",
    "portsCount": "1",
    "portsComment": "\\n        \\n         Type 2/Type 1 - невідомий - 13.99 ₴/⚡",
    "lat": 46.38685,
    "lng": 30.704973
  },
  {
    "name": "TOKA #30 Promenada (м. Київ, вул. Овруцька, 18)",
    "portsCount": "1",
    "portsComment": "\\n        \\n         Type 2/Type 1 - невідомий - 13.99 ₴/⚡",
    "lat": 50.47173,
    "lng": 30.477528
  },
  {
    "name": "TOKA #31 ILTA [Peugeot] (м. Київ, Залізничне шосе, 6)",
    "portsCount": "1",
    "portsComment": "\\n        \\n         Type 2 - вільний - 12.99 ₴/⚡",
    "lat": 50.406421,
    "lng": 30.535177
  },
  {
    "name": "TOKA #38 Ukraina parking (м. Київ, пл. Перемоги, 3)",
    "portsCount": "3",
    "portsComment": "\\n        \\n         Type 2 Plug - вільний - 14.99 ₴/⚡ Type 2 - вільний - 14.99 ₴/⚡ Type 1 - зайнятий - 14.99 ₴/⚡",
    "lat": 50.445769,
    "lng": 30.4925
  },
  {
    "name": "TOKA #40 Parking (м. Київ, Дніпровська набережна, 7)",
    "portsCount": "3",
    "portsComment": "\\n        \\n         Type 2 - вільний - 12.99 ₴/⚡ Type 2 - вільний - 12.99 ₴/⚡ Type 2 - вільний - 12.99 ₴/⚡",
    "lat": 50.425803,
    "lng": 30.592954
  },
  {
    "name": "TOKA #45 KADORR restaurant (м. Одеса, Французький Бульвар, 66/3)",
    "portsCount": "3",
    "portsComment": "\\n        \\n         Type 2 - вільний - 13.99 ₴/⚡ Type 1 - відключений - 13.99 ₴/⚡ Type 2 - вільний - 13.99 ₴/⚡",
    "lat": 46.437937,
    "lng": 30.769446
  },
  {
    "name": "TOKA #72 KADORR City Mall (м. Одеса, вул. Генуезська, 24б)",
    "portsCount": "1",
    "portsComment": "\\n        \\n         Type 2/Type 1 - вільний - 14.99 ₴/⚡",
    "lat": 46.435505,
    "lng": 30.758128
  },
  {
    "name": "TOKA #75 Kopeika (м. Одеса, просп. Добровольського, 130)",
    "portsCount": "1",
    "portsComment": "\\n        \\n         Type 2/Type 1 - невідомий - 14.99 ₴/⚡",
    "lat": 46.594379,
    "lng": 30.803064
  },
  {
    "name": "TOKA #76 Bdzhilka (м.Київ, вул. Шолом-Алейхема, 10а)",
    "portsCount": "1",
    "portsComment": "\\n        \\n         Type 2/Type 1 - вільний - 14.99 ₴/⚡",
    "lat": 50.47156,
    "lng": 30.629973
  },
  {
    "name": "TOKA #83 Kopeika (м. Одеса, вул. Малиновського, 51)",
    "portsCount": "1",
    "portsComment": "\\n        \\n         Type 2 - вільний - 14.99 ₴/⚡",
    "lat": 46.442486,
    "lng": 30.714405
  },
  {
    "name": "TOKA #84 Gimnazia A+ (Київ, вул. Березнева, 17)",
    "portsCount": "1",
    "portsComment": "\\n        \\n         Type 2/Type 1 - зайнятий - 12.99 ₴/⚡",
    "lat": 50.431085,
    "lng": 30.617644
  },
  {
    "name": "TOKA #91 LYPKY (м. Київ, вул. Шовковична, 6/15)",
    "portsCount": "1",
    "portsComment": "\\n        \\n         Type 2/Type 1 - невідомий - 0.00 ₴/⚡",
    "lat": 50.446109,
    "lng": 30.534903
  },
  {
    "name": "TOKA #1122 UkrGazBank (м.Київ, вул. Івана Миколайчука, 1А)",
    "portsCount": "3",
    "portsComment": "\\n        \\n         Type 1 - зайнятий - 14.99 ₴/⚡ Type 2 - вільний - 14.99 ₴/⚡ Type 1 - зайнятий - 14.99 ₴/⚡",
    "lat": 50.429955,
    "lng": 30.594386
  },
  {
    "name": "TOKA #94 MOECO (м. Хуст, вул. Івана Франка, 39)",
    "portsCount": "3",
    "portsComment": "\\n        \\n         Type 2 - вільний - 13.99 ₴/⚡ Type 1 - вільний - 13.99 ₴/⚡ Type 1 - вільний - 13.99 ₴/⚡",
    "lat": 48.168967,
    "lng": 23.294843
  },
  {
    "name": "TOKA #99 Gavan (м. Мукачево, вул. Перемоги, 2Е)",
    "portsCount": "3",
    "portsComment": "\\n        \\n         Type 2 - вільний - 14.00 ₴/⚡ Type 1 - відключений - 14.00 ₴/⚡ Type 1 - вільний - 14.00 ₴/⚡",
    "lat": 48.449735,
    "lng": 22.725264
  },
  {
    "name": "ТОКА #2001 Credit Agricole (вул. Пушкінська 42/2 , м. Киев)",
    "portsCount": "2",
    "portsComment": "\\n        \\n         Type 2 - вільний - 0.00 ₴/⚡ Type 2 - вільний - 0.00 ₴/⚡",
    "lat": 50.439846,
    "lng": 30.515469
  },
  {
    "name": "TOKA #312 Campus (вул. Нижньоключова, 14,Київ, 02000)",
    "portsCount": "7",
    "portsComment": "\\n        \\n         Type 2 - вільний - 0.00 ₴/⚡ Type 2 - вільний - 0.00 ₴/⚡ Type 2 - вільний - 0.00 ₴/⚡ Type 2 - зайнятий - 0.00 ₴/⚡ Type 2 - зайнятий - 0.00 ₴/⚡ Type 2 - вільний - 0.00 ₴/⚡ Type 2 - вільний - 0.00 ₴/⚡",
    "lat": 50.441261,
    "lng": 30.448225
  },
  {
    "name": "TOKA #2058 MOECO Energy (м. Ужгород, вул. Героїв 101-ї бригади, 9)",
    "portsCount": "3",
    "portsComment": "\\n        \\n         CHAdeMO - вільний - 15.99 ₴/⚡ CCS 2 - вільний - 15.99 ₴/⚡ Type 2 Plug - вільний - 14.99 ₴/⚡",
    "lat": 48.607781,
    "lng": 22.270322
  },
  {
    "name": "TOKA #104 OKKO Gas Station (м. Київ, просп. Броварський, 20з)",
    "portsCount": "1",
    "portsComment": "\\n        \\n         Type 2/Type 1 - вільний - 12.99 ₴/⚡",
    "lat": 50.459721,
    "lng": 30.626887
  },
  {
    "name": "TOKA #110 OKKO Gas Station (м. Київ, пр-т Академіка Палладіна, 33)",
    "portsCount": "1",
    "portsComment": "\\n        \\n         Type 2 - вільний - 12.99 ₴/⚡",
    "lat": 50.471444,
    "lng": 30.356116
  },
  {
    "name": "TOKA #108 OKKO Gas Station (м. Київ, вул. Семена Скляренка, 4)",
    "portsCount": "1",
    "portsComment": "\\n        \\n         Type 2/Type 1 - вільний - 12.99 ₴/⚡",
    "lat": 50.490524,
    "lng": 30.471537
  },
  {
    "name": "TOKA #145 OKKO Gas Station (Городок, вул. Львівська, 320-Б)",
    "portsCount": "1",
    "portsComment": "\\n        \\n         Type 2/Type 1 - вільний - 12.99 ₴/⚡",
    "lat": 49.786369,
    "lng": 23.695364
  },
  {
    "name": "TOKA #147 OKKO Gas Station (Стрий, вул. Болехівська, 49)",
    "portsCount": "1",
    "portsComment": "\\n        \\n         Type 2 - вільний - 12.99 ₴/⚡",
    "lat": 49.247759,
    "lng": 23.856451
  },
  {
    "name": "TOKA #152 OKKO Gas Station (Мала Рогань, вул. Шосейна, 2)",
    "portsCount": "1",
    "portsComment": "\\n        \\n         Type 2/Type 1 - невідомий - 12.99 ₴/⚡",
    "lat": 49.924708,
    "lng": 36.456487
  },
  {
    "name": "TOKA #151 OKKO Gas Station (м. Олександрія, вул. Куйбишева, 95)",
    "portsCount": "1",
    "portsComment": "\\n        \\n         Type 2/Type 1 - вільний - 12.99 ₴/⚡",
    "lat": 48.665191,
    "lng": 33.082186
  },
  {
    "name": "TOKA #109 Universam Hosen (м. Іршава, вул. Білецька 51/1)",
    "portsCount": "3",
    "portsComment": "\\n        \\n         Type 2 - вільний - 12.99 ₴/⚡ Type 1 - вільний - 12.99 ₴/⚡ Type 1 - вільний - 12.99 ₴/⚡",
    "lat": 48.307711,
    "lng": 23.046004
  },
  {
    "name": "TOKA #112 KADORR (м. Одеса, вул. Марсельська, 35б)",
    "portsCount": "3",
    "portsComment": "\\n        \\n         Type 2 - вільний - 14.99 ₴/⚡ Type 1 - вільний - 14.99 ₴/⚡ Type 1 - вільний - 14.99 ₴/⚡",
    "lat": 46.569557,
    "lng": 30.798757
  },
  {
    "name": "TOKA #128 Fix-El Market TISA (с.Солотвино, вул. Спортивна, 1, Тячiвський район, Закарпатська обл.)",
    "portsCount": "2",
    "portsComment": "\\n        \\n         Type 2 - невідомий - 12.99 ₴/⚡ Type 1 - невідомий - 12.99 ₴/⚡",
    "lat": 47.967334,
    "lng": 23.857919
  },
  {
    "name": "TOKA #129 Ministry of Infrastructure (м. Київ, проспект Перемоги, 14)",
    "portsCount": "3",
    "portsComment": "\\n        \\n         Type 2 - вільний - 14.99 ₴/⚡ Type 1 - вільний - 14.99 ₴/⚡ Type 2 Plug - вільний - 14.99 ₴/⚡",
    "lat": 50.449545,
    "lng": 30.481475
  },
  {
    "name": "TOKA #216 RiverMall  floor 2 (м. Київ, вул. Дніпровська набережна, 12)",
    "portsCount": "1",
    "portsComment": "\\n        \\n         Type 2/Type 1 - вільний - 12.99 ₴/⚡",
    "lat": 50.406685,
    "lng": 30.609269
  },
  {
    "name": "TOKA #156 7-e NEBO (Смт. Авангард, Житловий масив 7е Небо, вул. Торгова, 17)",
    "portsCount": "3",
    "portsComment": "\\n        \\n         Type 2 Plug - вільний - 12.99 ₴/⚡ Type 1 - зайнятий - 12.99 ₴/⚡ Type 1 - зайнятий - 12.99 ₴/⚡",
    "lat": 46.450164,
    "lng": 30.638567
  },
  {
    "name": "TOKA #158 PROM (м. Київ, вул. Харківське шосе, 201/203)",
    "portsCount": "3",
    "portsComment": "\\n        \\n         Type 2 - вільний - 12.99 ₴/⚡ Type 1 - вільний - 12.99 ₴/⚡ Type 1 - вільний - 12.99 ₴/⚡",
    "lat": 50.405013,
    "lng": 30.680027
  },
  {
    "name": "TOKA #159 Clever Gym (м. Ужгород вул. Другетів, 73)",
    "portsCount": "2",
    "portsComment": "\\n        \\n         Type 2 - невідомий - 13.99 ₴/⚡ Type 1 - невідомий - 13.99 ₴/⚡",
    "lat": 48.626666,
    "lng": 22.306158
  },
  {
    "name": "TOKA #163 Solomon (вул. Європейська, буд. 3,с. Соломоново, Закарпатська обл.)",
    "portsCount": "2",
    "portsComment": "\\n        \\n         Type 2 - вільний - 13.99 ₴/⚡ Type 1 - вільний - 13.99 ₴/⚡",
    "lat": 48.421483,
    "lng": 22.170205
  },
  {
    "name": "ТОКА #169 Fix-El Lakomka (вулиця Грушевського, Луг, Закарпатська область, 90616)",
    "portsCount": "3",
    "portsComment": "\\n        \\n         Type 2 - невідомий - 12.99 ₴/⚡ Type 1 - невідомий - 12.99 ₴/⚡ Type 1 - невідомий - 12.99 ₴/⚡",
    "lat": 47.952642,
    "lng": 24.039803
  },
  {
    "name": "ТОКА #171  (Закарпатська обл., Воловецький р-н, с.Білосовиця, 45 (Київ - Чоп 708 км))",
    "portsCount": "2",
    "portsComment": "\\n        \\n         Type 2 - вільний - 13.99 ₴/⚡ Type 1 - вільний - 13.99 ₴/⚡",
    "lat": 48.833131,
    "lng": 23.067636
  },
  {
    "name": "TOKA #174 Zolota Gora (с.Барвінок, урочище «Золота гора», Ужгород, Закарпатська область, 89425)",
    "portsCount": "3",
    "portsComment": "\\n        \\n         Type 2 - відключений - 12.99 ₴/⚡ Type 1 - вільний - 12.99 ₴/⚡ Type 1 - відключений - 12.99 ₴/⚡",
    "lat": 48.576272,
    "lng": 22.355011
  },
  {
    "name": "TOKA #175 Europe (Соломоново, вул. Леніна, 89)",
    "portsCount": "2",
    "portsComment": "\\n        \\n         Type 2 - невідомий - 12.99 ₴/⚡ Type 1 - невідомий - 12.99 ₴/⚡",
    "lat": 48.429044,
    "lng": 22.173886
  },
  {
    "name": "TOKA #972 Caffe Pal  (м.Київ, вул.Немировича-Данченка, 1)",
    "portsCount": "1",
    "portsComment": "\\n        \\n         Type 2 Plug - невідомий - 14.99 ₴/⚡",
    "lat": 50.431418,
    "lng": 30.539659
  },
  {
    "name": "TOKA #181 Apartamenty Na Leva (вул. Суворова, 40, Берегове, Закарпатська область)",
    "portsCount": "2",
    "portsComment": "\\n        \\n         Type 2 - вільний - 13.99 ₴/⚡ Type 1 - вільний - 13.99 ₴/⚡",
    "lat": 48.215763,
    "lng": 22.653177
  },
  {
    "name": "TOKA #184 OKKO Gas Station (м. Київ, пр-т. Героїв Сталінграду, 1-А)",
    "portsCount": "1",
    "portsComment": "\\n        \\n         Type 2/Type 1 - невідомий - 12.99 ₴/⚡",
    "lat": 50.488916,
    "lng": 30.524554
  },
  {
    "name": "TOKA #193 FOOD GARAGE (м. Львів, вул. Героїв УПА, 72)",
    "portsCount": "2",
    "portsComment": "\\n        \\n         Type 2 - вільний - 14.99 ₴/⚡ Type 2 - вільний - 14.99 ₴/⚡",
    "lat": 49.831684,
    "lng": 23.997614
  },
  {
    "name": "TOKA #196 Gastronom/21 BuKet/Zaryadka (бульвар Свободи, 54, Жовті Води, Дніпропетровська область)",
    "portsCount": "3",
    "portsComment": "\\n        \\n         Type 1 - вільний - 12.99 ₴/⚡ Type 2 - вільний - 12.99 ₴/⚡ Type 1 - вільний - 12.99 ₴/⚡",
    "lat": 48.346291,
    "lng": 33.498564
  },
  {
    "name": "TOKA #215 RiverMall  floor 2 (м. Київ, вул. Дніпровська набережна, 12)",
    "portsCount": "1",
    "portsComment": "\\n        \\n         Type 2/Type 1 - вільний - 12.99 ₴/⚡",
    "lat": 50.40663,
    "lng": 30.609229
  },
  {
    "name": "TOKA #222 RiverMall  floor 4 (м. Київ, вул. Дніпровська набережна, 12)",
    "portsCount": "1",
    "portsComment": "\\n        \\n         Type 2/Type 1 - вільний - 12.99 ₴/⚡",
    "lat": 50.406735,
    "lng": 30.609169
  },
  {
    "name": "TOKA #213 RiverMall floor 2 (м. Київ, вул. Дніпровська набережна, 12)",
    "portsCount": "1",
    "portsComment": "\\n        \\n         Type 2 - вільний - 12.99 ₴/⚡",
    "lat": 50.406521,
    "lng": 30.609149
  },
  {
    "name": "TOKA #214 RiverMall floor 2 (м. Київ, вул. Дніпровська набережна, 12)",
    "portsCount": "1",
    "portsComment": "\\n        \\n         Type 2 - вільний - 12.99 ₴/⚡",
    "lat": 50.406575,
    "lng": 30.609189
  },
  {
    "name": "TOKA #219 RiverMall  floor 4 (м. Київ, вул. Дніпровська набережна, 12)",
    "portsCount": "1",
    "portsComment": "\\n        \\n         Type 2 - вільний - 12.99 ₴/⚡",
    "lat": 50.406571,
    "lng": 30.609049
  },
  {
    "name": "TOKA #220 RiverMall floor 4 (м. Київ, вул. Дніпровська набережна, 12)",
    "portsCount": "1",
    "portsComment": "\\n        \\n         Type 2 - вільний - 12.99 ₴/⚡",
    "lat": 50.406625,
    "lng": 30.609089
  },
  {
    "name": "TOKA #211 RiverMall floor 2 (м. Київ, вул. Дніпровська набережна, 12)",
    "portsCount": "1",
    "portsComment": "\\n        \\n         Type 2 Plug - вільний - 12.99 ₴/⚡",
    "lat": 50.406411,
    "lng": 30.609069
  },
  {
    "name": "TOKA #212 RiverMall floor 2 (м. Київ, вул. Дніпровська набережна, 12)",
    "portsCount": "1",
    "portsComment": "\\n        \\n         Type 2 Plug - вільний - 12.99 ₴/⚡",
    "lat": 50.406466,
    "lng": 30.609109
  },
  {
    "name": "TOKA #217 RiverMall floor 4 (м. Київ, вул. Дніпровська набережна, 12)",
    "portsCount": "1",
    "portsComment": "\\n        \\n         Type 2 Plug - вільний - 12.99 ₴/⚡",
    "lat": 50.406461,
    "lng": 30.608969
  },
  {
    "name": "TOKA #218 RiverMall floor 4 (м. Київ, вул. Дніпровська набережна, 12)",
    "portsCount": "1",
    "portsComment": "\\n        \\n         Type 2 Plug - вільний - 12.99 ₴/⚡",
    "lat": 50.406516,
    "lng": 30.609009
  },
  {
    "name": "TOKA #221 RiverMall floor 4 (м. Київ, вул. Дніпровська набережна, 12)",
    "portsCount": "1",
    "portsComment": "\\n        \\n         Type 2 - вільний - 12.99 ₴/⚡",
    "lat": 50.40668,
    "lng": 30.609129
  },
  {
    "name": "TOKA #199  Kyiv Zoo (вул. Зоологічна, 5, Київ, Україна, 02000)",
    "portsCount": "3",
    "portsComment": "\\n        \\n         Type 1 - вільний - 12.99 ₴/⚡ Type 2 - вільний - 12.99 ₴/⚡ Type 1 - вільний - 12.99 ₴/⚡",
    "lat": 50.458159,
    "lng": 30.460798
  },
  {
    "name": "TOKA #200 Kyiv Zoo (вулиця Зоологічна, 5, Київ, Україна, 02000)",
    "portsCount": "3",
    "portsComment": "\\n        \\n         Type 1 - вільний - 12.99 ₴/⚡ Type 2 - вільний - 12.99 ₴/⚡ Type 1 - вільний - 12.99 ₴/⚡",
    "lat": 50.458099,
    "lng": 30.460984
  },
  {
    "name": "TOKA #189 BRIK (м. Одеса. провулок Маяковського, 7)",
    "portsCount": "2",
    "portsComment": "\\n        \\n         Type 2 - вільний - 12.99 ₴/⚡ Type 1 - вільний - 12.99 ₴/⚡",
    "lat": 46.486677,
    "lng": 30.734288
  },
  {
    "name": "ТОКА #207 Schasliviy (вул. Оксамитова, 11 Петропавлівська Борщагівка Київська обл.)",
    "portsCount": "3",
    "portsComment": "\\n        \\n         Type 2 - вільний - 12.99 ₴/⚡ Type 1 - зайнятий - 12.99 ₴/⚡ Type 1 - зайнятий - 12.99 ₴/⚡",
    "lat": 50.438292,
    "lng": 30.353022
  },
  {
    "name": "TOKA #208 Kyiv Zoo (вул. Зоологічна, 5, Київ, Україна, 02000)",
    "portsCount": "3",
    "portsComment": "\\n        \\n         Type 1 - вільний - 12.99 ₴/⚡ Type 2 - вільний - 12.99 ₴/⚡ Type 1 - вільний - 12.99 ₴/⚡",
    "lat": 50.458152,
    "lng": 30.461059
  },
  {
    "name": "TOKA #210 Horizon Park (м. Київ, вул. Миколи Амосова, 12)",
    "portsCount": "2",
    "portsComment": "\\n        \\n         Type 2 - невідомий - 12.99 ₴/⚡ Type 1 - невідомий - 12.99 ₴/⚡",
    "lat": 50.422823,
    "lng": 30.504474
  },
  {
    "name": "TOKA #223 OKKO Gas Station By GreenLife (вул.Вокзальна, 8, Надвірна, Івано-Франківська область)",
    "portsCount": "2",
    "portsComment": "\\n        \\n         Type 2 - вільний - 15.99 ₴/⚡ Type 1 - відключений - 15.99 ₴/⚡",
    "lat": 48.622343,
    "lng": 24.583454
  },
  {
    "name": "TOKA #230 OCTA (м. Київ, вул. Миколи Шепелєва, 2)",
    "portsCount": "3",
    "portsComment": "\\n        \\n         Type 1 - вільний - 12.99 ₴/⚡ Type 1 - вільний - 12.99 ₴/⚡ Type 2 Plug - вільний - 12.99 ₴/⚡",
    "lat": 50.421135,
    "lng": 30.427617
  },
  {
    "name": "TOKA #1176 Kurbasa (м. Київ, просп. Леся Курбаса, 1-Б)",
    "portsCount": "1",
    "portsComment": "\\n        \\n         Type 2/Type 1 - вільний - 12.99 ₴/⚡",
    "lat": 50.431031,
    "lng": 30.393184
  },
  {
    "name": "FASTER #256 Zolotoustivska (м. Київ, вул. Золотоустівська, 11)",
    "portsCount": "3",
    "portsComment": "\\n        \\n         Type 2 - вільний - 12.99 ₴/⚡ Type 1 - зайнятий - 12.99 ₴/⚡ Type 1 - вільний - 12.99 ₴/⚡",
    "lat": 50.449053,
    "lng": 30.488929
  },
  {
    "name": "TOKA #242 Motorkar Kropyvnytskyi (вул. Вокзальна, 60-А, Кропивницький)",
    "portsCount": "2",
    "portsComment": "\\n        \\n         Type 2 - вільний - 12.00 ₴/⚡ Type 2/Type 1 - вільний - 12.99 ₴/⚡",
    "lat": 48.510156,
    "lng": 32.245764
  },
  {
    "name": "TOKA #244 IoftBurger Fastiv (м. Фастів, вул. Гетьманська, 1)",
    "portsCount": "2",
    "portsComment": "\\n        \\n         Type 2 - вільний - 14.49 ₴/⚡ Type 1 - вільний - 14.49 ₴/⚡",
    "lat": 50.066362,
    "lng": 29.913569
  },
  {
    "name": "TOKA #247 Kyiv Zoo (вул. Зоологічна, 5, Київ, 02000)",
    "portsCount": "3",
    "portsComment": "\\n        \\n         Type 1 - вільний - 12.99 ₴/⚡ Type 2 - вільний - 12.99 ₴/⚡ Type 1 - вільний - 12.99 ₴/⚡",
    "lat": 50.458216,
    "lng": 30.460832
  },
  {
    "name": "TOKA #248 Kyiv Zoo (вул. Зоологічна, 5, Київ, 02000)",
    "portsCount": "3",
    "portsComment": "\\n        \\n         Type 1 - вільний - 12.99 ₴/⚡ Type 2 - вільний - 12.99 ₴/⚡ Type 1 - вільний - 12.99 ₴/⚡",
    "lat": 50.458181,
    "lng": 30.460992
  },
  {
    "name": "TOKA #1183 AZUZ-Kolisna (м. Львів, вул. Колісна, 39)",
    "portsCount": "3",
    "portsComment": "\\n        \\n         Type 2 - зайнятий - 14.99 ₴/⚡ Type 1 - вільний - 14.99 ₴/⚡ Type 1 - вільний - 14.99 ₴/⚡",
    "lat": 49.798016,
    "lng": 24.065418
  },
  {
    "name": "TOKA #176 AZUZ-KVITKA (м. Львів, вул. Професора Буйка, 27)",
    "portsCount": "3",
    "portsComment": "\\n        \\n         Type 2 Plug - зайнятий - 14.99 ₴/⚡ Type 2 - вільний - 14.99 ₴/⚡ Type 1 - відключений - 14.99 ₴/⚡",
    "lat": 49.810814,
    "lng": 24.03213
  },
  {
    "name": "TOKA #168 AZUZ-HYGGE (м.Львів, вул. Пасічна, 148)",
    "portsCount": "3",
    "portsComment": "\\n        \\n         Type 2 - невідомий - 14.99 ₴/⚡ Type 1 - невідомий - 14.99 ₴/⚡ Type 1 - невідомий - 14.99 ₴/⚡",
    "lat": 49.807748,
    "lng": 24.071109
  },
  {
    "name": "TOKA #252 Protasov business park [доступ обмежено] (вул.Миколи Грінченка, 2/1,  Київ)",
    "portsCount": "1",
    "portsComment": "\\n        \\n         Type 2 - вільний - 12.99 ₴/⚡",
    "lat": 50.426224,
    "lng": 30.505021
  },
  {
    "name": "TOKA #253 Protasov business park [доступ обмежено] (вул.Миколи Грінченка, 2/1, Київ)",
    "portsCount": "2",
    "portsComment": "\\n        \\n         Type 2 - вільний - 12.99 ₴/⚡ Type 2 - вільний - 12.99 ₴/⚡",
    "lat": 50.424254,
    "lng": 30.507158
  },
  {
    "name": "TOKA #254 MTB BANK (Польський узвіз, 11, Одеса)",
    "portsCount": "2",
    "portsComment": "\\n        \\n         Type 2 - вільний - 0.00 ₴/⚡ Type 2 - вільний - 0.00 ₴/⚡",
    "lat": 46.481941,
    "lng": 30.745414
  },
  {
    "name": "TOKA #66 Banya (м. Київ, вул. Івана Сергієнка, 16)",
    "portsCount": "3",
    "portsComment": "\\n        \\n         Type 2 - зайнятий - 13.99 ₴/⚡ Type 1 - вільний - 13.99 ₴/⚡ Type 1 - вільний - 13.99 ₴/⚡",
    "lat": 50.448577,
    "lng": 30.632715
  },
  {
    "name": "TOKA #259 Kyiv Zoo (вул.Зоологічна, 5, Київ, Україна, 02000)",
    "portsCount": "3",
    "portsComment": "\\n        \\n         Type 1 - вільний - 12.99 ₴/⚡ Type 2 - вільний - 12.99 ₴/⚡ Type 1 - вільний - 12.99 ₴/⚡",
    "lat": 50.458054,
    "lng": 30.461093
  },
  {
    "name": "TOKA #270 Helikon (вул.Шевченка, 45, Яноші, Закарпатська область)",
    "portsCount": "2",
    "portsComment": "\\n        \\n         Type 2 - вільний - 16.00 ₴/⚡ Type 1 - вільний - 16.00 ₴/⚡",
    "lat": 48.250398,
    "lng": 22.619133
  },
  {
    "name": "TOKA #271 Kyiv Zoo (вул.Зоологічна, 5, Київ, Україна, 02000)",
    "portsCount": "3",
    "portsComment": "\\n        \\n         Type 1 - вільний - 12.99 ₴/⚡ Type 2 - вільний - 12.99 ₴/⚡ Type 1 - вільний - 12.99 ₴/⚡",
    "lat": 50.458103,
    "lng": 30.461185
  },
  {
    "name": "TOKA #273 OKKO Gas Station Fast Charger (м. Сарни, вул. Варшавська, 4-Б)",
    "portsCount": "4",
    "portsComment": "\\n        \\n         CHAdeMO - вільний - 15.99 ₴/⚡ CCS 2/CCS 1 - вільний - 15.99 ₴/⚡ Type 2 Plug - вільний - 12.99 ₴/⚡ Type 1 - вільний - 12.99 ₴/⚡",
    "lat": 51.316937,
    "lng": 26.620922
  },
  {
    "name": "TOKA #283 Vezha vedmezha (вул. Опришків, 1, с. Волосянка, Львівська область)",
    "portsCount": "3",
    "portsComment": "\\n        \\n         Type 1 - вільний - 12.99 ₴/⚡ Type 2 - вільний - 12.99 ₴/⚡ Type 1 - вільний - 12.99 ₴/⚡",
    "lat": 48.801996,
    "lng": 23.445757
  },
  {
    "name": "TOKA #284 USCRF (проспект Перемоги, 151, Київ)",
    "portsCount": "3",
    "portsComment": "\\n        \\n         Type 2 - вільний - 15.16 ₴/⚡ Type 1 - вільний - 15.16 ₴/⚡ Type 1 - вільний - 15.16 ₴/⚡",
    "lat": 50.448196,
    "lng": 30.295986
  },
  {
    "name": "TOKA #1150 Panorama Plaza By GreenLife (Північний бульвар, 2А, Івано-Франківськ, Івано-Франківська обл)",
    "portsCount": "2",
    "portsComment": "\\n        \\n         Type 2 - вільний - 15.99 ₴/⚡ Type 1 - вільний - 15.99 ₴/⚡",
    "lat": 48.929804,
    "lng": 24.707311
  },
  {
    "name": "FASTER #276 Private station (вул. Велика Васильківська, 143/2, Київ,  03150)",
    "portsCount": "2",
    "portsComment": "\\n        \\n         Type 2 - зайнятий - 12.99 ₴/⚡ Type 1 - вільний - 12.99 ₴/⚡",
    "lat": 50.413481,
    "lng": 30.525958
  },
  {
    "name": "TOKA #293 OKKO Gas Station By GreenLife (вул.Вовчинецька, 225д, Івано-фоанківськ)",
    "portsCount": "2",
    "portsComment": "\\n        \\n         Type 2 - відключений - 15.99 ₴/⚡ Type 1 - вільний - 15.99 ₴/⚡",
    "lat": 48.939957,
    "lng": 24.738379
  },
  {
    "name": "TOKA #295 Tiras (м. Одеса, вул. Академіка Королева, 5/4)",
    "portsCount": "1",
    "portsComment": "\\n        \\n         Type 2 - невідомий - 100.00 ₴/⚡",
    "lat": 46.413593,
    "lng": 30.725005
  },
  {
    "name": "TOKA #296 OKKO Gas Station By GreenLife (вул. Хриплинська, 9, Івано-Франківськ)",
    "portsCount": "2",
    "portsComment": "\\n        \\n         Type 2 - вільний - 15.99 ₴/⚡ Type 1 - вільний - 15.99 ₴/⚡",
    "lat": 48.915555,
    "lng": 24.72942
  },
  {
    "name": "TOKA #299 Baku Boulevard (Київська обл., с. Підгірці, Новообухівська траса 28 км)",
    "portsCount": "2",
    "portsComment": "\\n        \\n         Type 2 - вільний - 13.99 ₴/⚡ Type 1 - вільний - 13.99 ₴/⚡",
    "lat": 50.241318,
    "lng": 30.571293
  },
  {
    "name": "FASTER #300 Zarichna (м. Київ, вул. Зарічна, 16)",
    "portsCount": "3",
    "portsComment": "\\n        \\n         Type 2 - вільний - 13.49 ₴/⚡ Type 1 - зайнятий - 13.49 ₴/⚡ Type 1 - зайнятий - 13.49 ₴/⚡",
    "lat": 50.394945,
    "lng": 30.602596
  },
  {
    "name": "TOKA #305 OKKO Gas Station Fast Charger (вул. Галицька, 23А, Угринів, Івано-Франківська обл.)",
    "portsCount": "3",
    "portsComment": "\\n        \\n         Type 2 - відключений - 15.99 ₴/⚡ CHAdeMO - вільний - 16.99 ₴/⚡ CCS 2 - вільний - 16.99 ₴/⚡",
    "lat": 48.959796,
    "lng": 24.704331
  },
  {
    "name": "TOKA #1014 Blockbuster Fast Charger (м. Київ, пр-т. Степана Бандери, 34-В)",
    "portsCount": "4",
    "portsComment": "\\n        \\n         CHAdeMO - вільний - 15.99 ₴/⚡ CCS 2 - вільний - 15.99 ₴/⚡ Type 2 Plug - вільний - 12.99 ₴/⚡ Type 1 - вільний - 12.99 ₴/⚡",
    "lat": 50.485839,
    "lng": 30.519035
  },
  {
    "name": "FASTER #303 Khutorok restaurant (м. Київ. Набережно-Хрещатицька, 10-А)",
    "portsCount": "3",
    "portsComment": "\\n        \\n         Type 2 - вільний - 13.99 ₴/⚡ Type 1 - вільний - 13.99 ₴/⚡ Type 1 - вільний - 13.99 ₴/⚡",
    "lat": 50.469565,
    "lng": 30.524394
  },
  {
    "name": "TOKA #307 Marshal (м. Одеса, проспект Академіка Глушка, 29-А)",
    "portsCount": "1",
    "portsComment": "\\n        \\n         Type 2/Type 1 - невідомий - 14.99 ₴/⚡",
    "lat": 46.396301,
    "lng": 30.708442
  },
  {
    "name": "TOKA #308 Margarita (вул. Гагаріна, 35/33, Біла Церква)",
    "portsCount": "2",
    "portsComment": "\\n        \\n         Type 2 - зайнятий - 12.99 ₴/⚡ Type 1 - вільний - 12.99 ₴/⚡",
    "lat": 49.790488,
    "lng": 30.115372
  },
  {
    "name": "FASTER #309 DREAM berry (м. Київ, Оболонський просп., 21-б)",
    "portsCount": "3",
    "portsComment": "\\n        \\n         Type 2 - вільний - 15.99 ₴/⚡ Type 1 - зайнятий - 15.99 ₴/⚡ Type 1 - вільний - 15.99 ₴/⚡",
    "lat": 50.514207,
    "lng": 30.498809
  },
  {
    "name": "FASTER #315 DREAM berry (м. Київ, Оболонський просп., 21-б)",
    "portsCount": "3",
    "portsComment": "\\n        \\n         Type 2 - вільний - 15.99 ₴/⚡ Type 1 - вільний - 15.99 ₴/⚡ Type 1 - вільний - 15.99 ₴/⚡",
    "lat": 50.514213,
    "lng": 30.498399
  },
  {
    "name": "TOKA #23 UkrGazBank (м. Київ, бульв. Вацлава Гавела, 16А)",
    "portsCount": "1",
    "portsComment": "\\n        \\n         Type 2 - вільний - 14.99 ₴/⚡",
    "lat": 50.438301,
    "lng": 30.409067
  },
  {
    "name": "TOKA #324 Yupiter 9 Agroservices (вул. Сулими, 11, Глеваха, Київська обл., Украина, 08630)",
    "portsCount": "1",
    "portsComment": "\\n        \\n         Type 2/Type 1 - невідомий - 0.00 ₴/⚡",
    "lat": 50.242165,
    "lng": 30.276244
  },
  {
    "name": "TOKA #325 RDO (вул. Садова 169, м. Умань)",
    "portsCount": "4",
    "portsComment": "\\n        \\n         CHAdeMO - вільний - 0.00 ₴/⚡ CCS 2 - вільний - 0.00 ₴/⚡ Type 2 - вільний - 0.00 ₴/⚡ Type 1 - вільний - 0.00 ₴/⚡",
    "lat": 48.798432,
    "lng": 30.257414
  },
  {
    "name": "TOKA #327 OKKO Gas Station (Яворівський р-н, смт. Краковець, вул. Вербицького, 68)",
    "portsCount": "2",
    "portsComment": "\\n        \\n         Type 2 - вільний - 12.99 ₴/⚡ Type 2 - вільний - 12.99 ₴/⚡",
    "lat": 49.955631,
    "lng": 23.124118
  },
  {
    "name": "TOKA #328 Barvy Fast Charger (м. Київ, вул. Мечникова, 3)",
    "portsCount": "3",
    "portsComment": "\\n        \\n         Type 2 Plug - невідомий - 12.99 ₴/⚡ CCS 2 - невідомий - 15.99 ₴/⚡ CHAdeMO - невідомий - 15.99 ₴/⚡",
    "lat": 50.437878,
    "lng": 30.528404
  },
  {
    "name": "TOKA #333 Goethe-Institut (вул. Лаврська, 16, літера Л, м. Київ)",
    "portsCount": "3",
    "portsComment": "\\n        \\n         Type 2 - вільний - 0.00 ₴/⚡ Schuko - вільний - 0.00 ₴/⚡ Type 1 - вільний - 0.00 ₴/⚡",
    "lat": 50.432983,
    "lng": 30.553478
  },
  {
    "name": "TOKA #336 OKKO Gas Station Fast Charger (м. Київ, пр-т Академіка Палладіна, 33)",
    "portsCount": "3",
    "portsComment": "\\n        \\n         Type 2 - вільний - 12.99 ₴/⚡ CHAdeMO - вільний - 15.99 ₴/⚡ CCS 2 - вільний - 15.99 ₴/⚡",
    "lat": 50.471581,
    "lng": 30.356124
  },
  {
    "name": "TOKA #337 OKKO Gas Station Fast Charger (Рівненський р-н, с/рада Шпанівська, комплекс будівель та споруд №1)",
    "portsCount": "3",
    "portsComment": "\\n        \\n         Type 2 - зайнятий - 12.99 ₴/⚡ CHAdeMO - вільний - 15.99 ₴/⚡ CCS 2 - вільний - 15.99 ₴/⚡",
    "lat": 50.6449,
    "lng": 26.200685
  },
  {
    "name": "TOKA #342 NISSAN AutoAlliance (м. Київ, вул. Корабельна, 4-А)",
    "portsCount": "3",
    "portsComment": "\\n        \\n         Type 1 - вільний - 12.99 ₴/⚡ Type 2 - вільний - 12.99 ₴/⚡ Type 2 Plug - вільний - 12.99 ₴/⚡",
    "lat": 50.482644,
    "lng": 30.492162
  },
  {
    "name": "TOKA #343 Luxoptika (проспект Степана Бандери, 21Б, Київ)",
    "portsCount": "3",
    "portsComment": "\\n        \\n         Type 2 Plug - вільний - 100.00 ₴/⚡ Type 2 Plug - вільний - 100.00 ₴/⚡ Type 2 - вільний - 100.00 ₴/⚡",
    "lat": 50.492387,
    "lng": 30.494096
  },
  {
    "name": "TOKA #389 Summit (м. Київ, вул. Михайла Грушевського, 9-Б)",
    "portsCount": "3",
    "portsComment": "\\n        \\n         Type 2 Plug - вільний - 0.00 ₴/⚡ Type 2 Plug - вільний - 0.00 ₴/⚡ Type 2 Plug - вільний - 0.00 ₴/⚡",
    "lat": 50.446178,
    "lng": 30.544782
  },
  {
    "name": "TOKA #388 Summit (м. Київ, вул. Михайла Грушевського, 9-Б)",
    "portsCount": "3",
    "portsComment": "\\n        \\n         Type 2 Plug - вільний - 0.00 ₴/⚡ Type 2 Plug - зайнятий - 0.00 ₴/⚡ Type 2 Plug - зайнятий - 0.00 ₴/⚡",
    "lat": 50.446171,
    "lng": 30.544782
  },
  {
    "name": "TOKA #387 Summit (м. Київ, вул. Михайла Грушевського, 9-Б)",
    "portsCount": "2",
    "portsComment": "\\n        \\n         Type 2 Plug - вільний - 12.99 ₴/⚡ Type 1 - вільний - 12.99 ₴/⚡",
    "lat": 50.446087,
    "lng": 30.544819
  },
  {
    "name": "FASTER #347 Kudryashova (м. Київ, вул. Кудряшова, 16)",
    "portsCount": "3",
    "portsComment": "\\n        \\n         Type 2 - вільний - 12.99 ₴/⚡ Type 1 - зайнятий - 12.99 ₴/⚡ Type 1 - зайнятий - 12.99 ₴/⚡",
    "lat": 50.431528,
    "lng": 30.485401
  },
  {
    "name": "TOKA #348 Oberig clinic (м. Київ, вул. Зоологічна, 3-Г)",
    "portsCount": "2",
    "portsComment": "\\n        \\n         Type 2 - вільний - 12.99 ₴/⚡ Type 2 - вільний - 12.99 ₴/⚡",
    "lat": 50.4581,
    "lng": 30.458663
  },
  {
    "name": "TOKA #349 Platforma Korolenkivska (м. Київ, вул. Короленківська, буд. 3)",
    "portsCount": "3",
    "portsComment": "\\n        \\n         Type 2 - вільний - 12.99 ₴/⚡ Type 2 - вільний - 12.99 ₴/⚡ Type 2 - вільний - 12.99 ₴/⚡",
    "lat": 50.433704,
    "lng": 30.506559
  },
  {
    "name": "TOKA #350 Platforma Korolenkivska (м. Київ, вул. Короленківська, буд. 3)",
    "portsCount": "3",
    "portsComment": "\\n        \\n         Type 2 - вільний - 12.99 ₴/⚡ Type 2 - вільний - 12.99 ₴/⚡ Type 2 - вільний - 12.99 ₴/⚡",
    "lat": 50.433704,
    "lng": 30.506559
  },
  {
    "name": "FASTER #354 Bon Bazar (м. Київ, вул. Велика Васильківська, 143/2)",
    "portsCount": "3",
    "portsComment": "\\n        \\n         Type 2 - вільний - 12.99 ₴/⚡ Type 1 - вільний - 12.99 ₴/⚡ Type 1 - вільний - 12.99 ₴/⚡",
    "lat": 50.412775,
    "lng": 30.526451
  },
  {
    "name": "FASTER #355 EKO-market (м. Київ, вул. Зої Гайдай, 2)",
    "portsCount": "3",
    "portsComment": "\\n        \\n         Type 2 - вільний - 12.99 ₴/⚡ Type 1 - вільний - 12.99 ₴/⚡ Type 1 - вільний - 12.99 ₴/⚡",
    "lat": 50.514725,
    "lng": 30.492247
  },
  {
    "name": "TOKA #359 FARMAK (вул. Чорноморська,  буд. 4 , м. Київ)",
    "portsCount": "1",
    "portsComment": "\\n        \\n         Type 2 Plug - вільний - 0.00 ₴/⚡",
    "lat": 50.481687,
    "lng": 30.49462
  },
  {
    "name": "TOKA #361 Kryshtaleve Dzherelo (Кришталеве джерело, с. Солочин, Закарпатська обл.)",
    "portsCount": "3",
    "portsComment": "\\n        \\n         Type 1 - вільний - 12.99 ₴/⚡ Type 2 - вільний - 12.99 ₴/⚡ Type 2 Plug - вільний - 12.99 ₴/⚡",
    "lat": 48.589583,
    "lng": 22.974658
  },
  {
    "name": "TOKA #362 Knyazha Hora (м. Канів, вул. Дніпровська ,1)",
    "portsCount": "2",
    "portsComment": "\\n        \\n         Type 2 Plug - вільний - 12.99 ₴/⚡ Type 1 - вільний - 12.99 ₴/⚡",
    "lat": 49.737377,
    "lng": 31.505335
  },
  {
    "name": "TOKA #363 Viking (м. Львів, вул. Зелена, буд. 151)",
    "portsCount": "2",
    "portsComment": "\\n        \\n         Type 1 - вільний - 12.99 ₴/⚡ Type 2 - вільний - 12.99 ₴/⚡",
    "lat": 49.808845,
    "lng": 24.061834
  },
  {
    "name": "TOKA #364 Viking (м. Львів, вул. Зелена, буд. 151)",
    "portsCount": "2",
    "portsComment": "\\n        \\n         Type 1 - вільний - 12.99 ₴/⚡ Type 2 - вільний - 12.99 ₴/⚡",
    "lat": 49.808797,
    "lng": 24.061729
  },
  {
    "name": "TOKA #365 Viking (м. Львів, вул. Зелена, буд. 151)",
    "portsCount": "2",
    "portsComment": "\\n        \\n         Type 1 - невідомий - 12.99 ₴/⚡ Type 2 - невідомий - 12.99 ₴/⚡",
    "lat": 49.808825,
    "lng": 24.061834
  },
  {
    "name": "TOKA #366 Viking (м. Львів, вул. Зелена, буд. 151)",
    "portsCount": "2",
    "portsComment": "\\n        \\n         Type 1 - невідомий - 12.99 ₴/⚡ Type 2 - невідомий - 12.99 ₴/⚡",
    "lat": 49.808909,
    "lng": 24.061851
  },
  {
    "name": "TOKA #985 EKO-market (м. Київ, вул. Радунська 40)",
    "portsCount": "3",
    "portsComment": "\\n        \\n         Type 2 - вільний - 12.99 ₴/⚡ Type 1 - вільний - 12.99 ₴/⚡ Type 1 - вільний - 12.99 ₴/⚡",
    "lat": 50.529455,
    "lng": 30.601637
  },
  {
    "name": "FASTER #369 Prague  (м Київ, вул. Володимира Сосюри, ​​6)",
    "portsCount": "3",
    "portsComment": "\\n        \\n         Type 2 - вільний - 12.99 ₴/⚡ Type 1 - вільний - 12.99 ₴/⚡ Type 1 - вільний - 12.99 ₴/⚡",
    "lat": 50.44227,
    "lng": 30.633238
  },
  {
    "name": "TOKA #971 OKKO Gas Station Fast Charger (м. Київ, просп. Романа Шухевича, 5)",
    "portsCount": "2",
    "portsComment": "\\n        \\n         CCS 2 - невідомий - 15.99 ₴/⚡ CHAdeMO - невідомий - 15.99 ₴/⚡",
    "lat": 50.495975,
    "lng": 30.567831
  },
  {
    "name": "FASTER #371 EKO-market (м Київ, вул. Маршала Тимошенко, 13/1)",
    "portsCount": "3",
    "portsComment": "\\n        \\n         Type 2 - вільний - 12.99 ₴/⚡ Type 1 - вільний - 12.99 ₴/⚡ Type 1 - вільний - 12.99 ₴/⚡",
    "lat": 50.510883,
    "lng": 30.49187
  },
  {
    "name": "TOKA #372 MZS (м. Київ, Михайлівська площа, 1)",
    "portsCount": "2",
    "portsComment": "\\n        \\n         Type 2 - вільний - 0.00 ₴/⚡ Type 1 - вільний - 0.00 ₴/⚡",
    "lat": 50.456886,
    "lng": 30.52154
  },
  {
    "name": "TOKA #373 Hotel Apartel (с. Шаян, вул. Центральна, 11)",
    "portsCount": "2",
    "portsComment": "\\n        \\n         Type 2 Plug - невідомий - 12.99 ₴/⚡ Type 1 - невідомий - 12.99 ₴/⚡",
    "lat": 48.059008,
    "lng": 23.347366
  },
  {
    "name": "FASTER #374 EKO-market (м. Київ, вул. Ольжича, 14)",
    "portsCount": "3",
    "portsComment": "\\n        \\n         Type 2 - вільний - 12.99 ₴/⚡ Type 1 - вільний - 12.99 ₴/⚡ Type 1 - вільний - 12.99 ₴/⚡",
    "lat": 50.479516,
    "lng": 30.446068
  },
  {
    "name": "TOKA #986 EKO-market (м. Київ, вул. Маяковського, 17)",
    "portsCount": "3",
    "portsComment": "\\n        \\n         Type 2 - вільний - 12.99 ₴/⚡ Type 1 - зайнятий - 12.99 ₴/⚡ Type 1 - вільний - 12.99 ₴/⚡",
    "lat": 50.502891,
    "lng": 30.591908
  },
  {
    "name": "TOKA #376 MZS (м. Київ, Михайлівська площа, 1)",
    "portsCount": "2",
    "portsComment": "\\n        \\n         Type 2 - зайнятий - 0.00 ₴/⚡ Type 1 - вільний - 0.00 ₴/⚡",
    "lat": 50.456851,
    "lng": 30.521548
  },
  {
    "name": "TOKA #378 Electrim-2000 (м. Миколаїв, вул. 7-а Слобідська, 70/8)",
    "portsCount": "1",
    "portsComment": "\\n        \\n         Type 2 - вільний - 13.99 ₴/⚡",
    "lat": 46.955192,
    "lng": 32.024981
  },
  {
    "name": "TOKA #380 Summit (м. Київ, вул. Михайла Грушевського, 9-А)",
    "portsCount": "3",
    "portsComment": "\\n        \\n         Type 2 Plug - вільний - 0.00 ₴/⚡ Type 2 Plug - вільний - 0.00 ₴/⚡ Type 2 Plug - вільний - 0.00 ₴/⚡",
    "lat": 50.445463,
    "lng": 30.543782
  },
  {
    "name": "TOKA #382 Ilta (м. Київ, Залізничне шосе, 6)",
    "portsCount": "3",
    "portsComment": "\\n        \\n         Type 2 Plug - невідомий - 0.00 ₴/⚡ Type 2 Plug - невідомий - 0.00 ₴/⚡ Type 1 - невідомий - 0.00 ₴/⚡",
    "lat": 50.406227,
    "lng": 30.535417
  },
  {
    "name": "TOKA #384  (м. Київ, вул. Михайла Грушевського, 9-А)",
    "portsCount": "3",
    "portsComment": "\\n        \\n         Type 2 Plug - вільний - 12.99 ₴/⚡ Type 2 Plug - вільний - 12.99 ₴/⚡ Type 2 Plug - вільний - 12.99 ₴/⚡",
    "lat": 50.445428,
    "lng": 30.543857
  },
  {
    "name": "TOKA #386 Queen Country Club (Обухівське шосе, 55, смт. Козин, Київська обл.)",
    "portsCount": "2",
    "portsComment": "\\n        \\n         Type 2 Plug - вільний - 12.99 ₴/⚡ Type 1 - вільний - 12.99 ₴/⚡",
    "lat": 50.222898,
    "lng": 30.646262
  },
  {
    "name": "TOKA #392 Maximus (м. Ужгород, вул. Гленца 1)",
    "portsCount": "3",
    "portsComment": "\\n        \\n         Type 1 - вільний - 12.99 ₴/⚡ Type 2 Plug - вільний - 12.99 ₴/⚡ Type 1 - вільний - 12.99 ₴/⚡",
    "lat": 48.625031,
    "lng": 22.276499
  },
  {
    "name": "TOKA #393 Elegiya Park (м. Одеса, пров. Курортний, 1)",
    "portsCount": "2",
    "portsComment": "\\n        \\n         Type 2 - вільний - 12.99 ₴/⚡ Type 2 - вільний - 12.99 ₴/⚡",
    "lat": 46.437123,
    "lng": 30.761579
  },
  {
    "name": "TOKA #394 Private station ()",
    "portsCount": "1",
    "portsComment": "\\n        \\n         Type 2 - невідомий - 100.00 ₴/⚡",
    "lat": 50.575197,
    "lng": 30.541189
  },
  {
    "name": "TOKA #395 Elmiz Fast Charger (м. Київ, вул. Бориспільська, 9)",
    "portsCount": "2",
    "portsComment": "\\n        \\n         CHAdeMO - невідомий - 13.99 ₴/⚡ Type 2 - невідомий - 12.99 ₴/⚡",
    "lat": 50.427573,
    "lng": 30.675808
  },
  {
    "name": "TOKA #477 Predslavynska 25 (м. Київ, вул. Предславинська, 25)",
    "portsCount": "1",
    "portsComment": "\\n        \\n         Type 2/Type 1 - вільний - 13.99 ₴/⚡",
    "lat": 50.42464,
    "lng": 30.52121
  },
  {
    "name": "TOKA #402 Elmiz (м. Київ, вул. Бориспільська, 9)",
    "portsCount": "2",
    "portsComment": "\\n        \\n         Type 2 - вільний - 12.99 ₴/⚡ Type 1 - вільний - 12.99 ₴/⚡",
    "lat": 50.42749,
    "lng": 30.675812
  },
  {
    "name": "FASTER #403 DA! Apartment  (м. Київ, вул Червоноткацька 93)",
    "portsCount": "3",
    "portsComment": "\\n        \\n         Type 2 - вільний - 13.99 ₴/⚡ Type 1 - вільний - 13.99 ₴/⚡ Type 1 - вільний - 13.99 ₴/⚡",
    "lat": 50.457345,
    "lng": 30.650538
  },
  {
    "name": "TOKA #405 Chayka (м. Дніпро, вул. Нахімова, 53)",
    "portsCount": "2",
    "portsComment": "\\n        \\n         Type 2 Plug - вільний - 10.99 ₴/⚡ Type 1 - вільний - 10.99 ₴/⚡",
    "lat": 48.442089,
    "lng": 35.013034
  },
  {
    "name": "TOKA #406 Hilton (м. Київ, вул. Тараса Шевченка, 30)",
    "portsCount": "2",
    "portsComment": "\\n        \\n         Type 2 Plug - вільний - 14.99 ₴/⚡ Type 1 - вільний - 14.99 ₴/⚡",
    "lat": 50.445212,
    "lng": 30.504936
  },
  {
    "name": "FASTER #407 Zarichna (м. Київ, вул. Зарічна, 1)",
    "portsCount": "3",
    "portsComment": "\\n        \\n         Type 2 - вільний - 12.99 ₴/⚡ Type 1 - зайнятий - 12.99 ₴/⚡ Type 1 - зайнятий - 12.99 ₴/⚡",
    "lat": 50.394941,
    "lng": 30.6012
  },
  {
    "name": "FASTER #408 Kurenivska (вул. Куренівська 5/7, м. Київ)",
    "portsCount": "3",
    "portsComment": "\\n        \\n         Type 2 - вільний - 13.99 ₴/⚡ Type 1 - вільний - 13.99 ₴/⚡ Type 1 - вільний - 13.99 ₴/⚡",
    "lat": 50.49048,
    "lng": 30.467652
  },
  {
    "name": "TOKA #2008 SEM UKRAINA Fast Charger (Полтавська обл., м. Кременчук, вул. Небесної Сотні, 66-Г)",
    "portsCount": "4",
    "portsComment": "\\n        \\n         CHAdeMO - вільний - 14.50 ₴/⚡ CCS 2/CCS 1 - вільний - 14.50 ₴/⚡ Type 2 Plug - вільний - 13.99 ₴/⚡ Type 1 - вільний - 13.99 ₴/⚡",
    "lat": 49.074759,
    "lng": 33.40594
  },
  {
    "name": "TOKA #417 Volkswagen Autocenter-Ukraine (м. Дніпро, вул. Набережна Перемоги, 22)",
    "portsCount": "3",
    "portsComment": "\\n        \\n         Type 2 Plug - вільний - 12.99 ₴/⚡ Type 2 - вільний - 12.99 ₴/⚡ Type 2 Plug - вільний - 12.99 ₴/⚡",
    "lat": 48.449915,
    "lng": 35.07467
  },
  {
    "name": "TOKA #418 ISIDA (м. Київ, вул. Вацлава Гавела, 65)",
    "portsCount": "2",
    "portsComment": "\\n        \\n         Type 2 Plug - вільний - 12.99 ₴/⚡ Type 1 - вільний - 12.99 ₴/⚡",
    "lat": 50.433697,
    "lng": 30.41426
  },
  {
    "name": "TOKA #420 Private station (м. Буча, вул.  Богдана Ступки, 43a)",
    "portsCount": "1",
    "portsComment": "\\n        \\n         GB/T AC - невідомий - 0.00 ₴/⚡",
    "lat": 50.566342,
    "lng": 30.197476
  },
  {
    "name": "ТОКА #1171 Porsche Inter Auto Ukraine (Київська обл., с. Софіївська Борщагівка, вул..Вишнева, 1 А)",
    "portsCount": "3",
    "portsComment": "\\n        \\n         CCS 2 - вільний - 15.99 ₴/⚡ CCS 2 - вільний - 15.99 ₴/⚡ Type 2 - вільний - 12.99 ₴/⚡",
    "lat": 50.40871,
    "lng": 30.380527
  },
  {
    "name": "TOKA #427 Hyundai (м. Дніпро, Запорізьке шосе,  59)",
    "portsCount": "2",
    "portsComment": "\\n        \\n         Type 2 Plug - вільний - 12.99 ₴/⚡ Type 1 - вільний - 12.99 ₴/⚡",
    "lat": 48.401275,
    "lng": 35.037803
  },
  {
    "name": "ТОКА #430 Osonnya (с. Коротище, вул.. Івана Франка, буд. 42/А)",
    "portsCount": "2",
    "portsComment": "\\n        \\n         Type 2 - невідомий - 12.99 ₴/⚡ Type 1 - невідомий - 12.99 ₴/⚡",
    "lat": 49.20871,
    "lng": 23.253036
  },
  {
    "name": "ТОКА #431 Osonnya (с. Коротище, вул.. Івана Франка, буд. 42/А)",
    "portsCount": "3",
    "portsComment": "\\n        \\n         Type 1 - вільний - 12.99 ₴/⚡ Type 1 - вільний - 12.99 ₴/⚡ Type 1 - вільний - 12.99 ₴/⚡",
    "lat": 49.208738,
    "lng": 23.252993
  },
  {
    "name": "TOKA #432 Park-Hotel Chudodievo (с. Вишпіль, вул. Лісова, буд. 47)",
    "portsCount": "2",
    "portsComment": "\\n        \\n         Type 2 Plug - вільний - 15.99 ₴/⚡ Type 1 - вільний - 15.99 ₴/⚡",
    "lat": 50.358227,
    "lng": 28.625517
  },
  {
    "name": "TOKA #433 Galaktika (м. Винники вул. Миколайчука, 1)",
    "portsCount": "3",
    "portsComment": "\\n        \\n         Type 1 - вільний - 12.99 ₴/⚡ Type 1 - вільний - 12.99 ₴/⚡ Type 1 - вільний - 12.99 ₴/⚡",
    "lat": 49.817904,
    "lng": 24.135612
  },
  {
    "name": "TOKA #434 Galaktika (м. Винники вул. Миколайчука, 1)",
    "portsCount": "3",
    "portsComment": "\\n        \\n         Type 1 - вільний - 12.99 ₴/⚡ Type 1 - вільний - 12.99 ₴/⚡ Type 1 - вільний - 12.99 ₴/⚡",
    "lat": 49.817814,
    "lng": 24.136024
  },
  {
    "name": "TOKA #1045 Hotel Twins By GreenLife (ділянка Щівки, Поляниця)",
    "portsCount": "2",
    "portsComment": "\\n        \\n         Type 2 Plug - зайнятий - 15.99 ₴/⚡ GB/T AC - вільний - 15.99 ₴/⚡",
    "lat": 48.363972,
    "lng": 24.418291
  },
  {
    "name": "TOKA #1032 MHP (м. Київ, вул. Академіка Заболотного, 158)",
    "portsCount": "2",
    "portsComment": "\\n        \\n         Type 2 - вільний - 8.99 ₴/⚡ Type 2 Plug - вільний - 8.99 ₴/⚡",
    "lat": 50.351812,
    "lng": 30.49404
  },
  {
    "name": "TOKA #1001 Clever Fast Charger (м. Київ, пр-т. Бажана, 40)",
    "portsCount": "4",
    "portsComment": "\\n        \\n         CHAdeMO - вільний - 15.99 ₴/⚡ CCS 2 - вільний - 15.99 ₴/⚡ Type 2 Plug - вільний - 12.99 ₴/⚡ Type 1 - вільний - 12.99 ₴/⚡",
    "lat": 50.400565,
    "lng": 30.652699
  },
  {
    "name": "TOKA #444 Hotel Fokus (м. Хуст, вул. Івана Франка, 69)",
    "portsCount": "2",
    "portsComment": "\\n        \\n         Type 2 - вільний - 13.99 ₴/⚡ Type 2 - вільний - 13.99 ₴/⚡",
    "lat": 48.164667,
    "lng": 23.297085
  },
  {
    "name": "TOKA #1002 NOVUS Fast Charger (м. Київ, пр-т. Петра Григоренка, 18)",
    "portsCount": "4",
    "portsComment": "\\n        \\n         CHAdeMO - вільний - 15.99 ₴/⚡ CCS 2 - вільний - 15.99 ₴/⚡ Type 2 Plug - вільний - 14.99 ₴/⚡ Type 1 - вільний - 14.99 ₴/⚡",
    "lat": 50.411295,
    "lng": 30.625628
  },
  {
    "name": "TOKA #447 OKKO Gas Station (вул. Карпатська, 142-Б, Коломия, Івано-Франківська обл.)",
    "portsCount": "2",
    "portsComment": "\\n        \\n         Type 2 - вільний - 15.99 ₴/⚡ Type 1 - вільний - 15.99 ₴/⚡",
    "lat": 48.539134,
    "lng": 25.00459
  },
  {
    "name": "TOKA #449 Respublika 2 (м. Київ, бульвар Тадея Рильського, 4)",
    "portsCount": "3",
    "portsComment": "\\n        \\n         Type 2 Plug - невідомий - 12.99 ₴/⚡ Type 2 - невідомий - 12.99 ₴/⚡ Type 1 - невідомий - 12.99 ₴/⚡",
    "lat": 50.370401,
    "lng": 30.445033
  },
  {
    "name": "TOKA #466 EMILY RESORT (вулиця Хмельницького, 9б, Винники, Львівська область, Украина)",
    "portsCount": "4",
    "portsComment": "\\n        \\n         CHAdeMO - відключений - 16.99 ₴/⚡ CCS 2/CCS 1 - вільний - 16.99 ₴/⚡ Type 2 Plug - зайнятий - 15.99 ₴/⚡ Type 1 - вільний - 15.99 ₴/⚡",
    "lat": 49.8126,
    "lng": 24.1136
  },
  {
    "name": "TOKA #470 EMILY RESORT (вулиця Хмельницького, 9б, Винники, Львівська область, Украина)",
    "portsCount": "2",
    "portsComment": "\\n        \\n         Type 2 - вільний - 12.99 ₴/⚡ Type 2 - вільний - 12.99 ₴/⚡",
    "lat": 49.812554,
    "lng": 24.118669
  },
  {
    "name": "TOKA #471 Dragon Park Lviv (м. Львів, вул. Стрийська, 202)",
    "portsCount": "2",
    "portsComment": "\\n        \\n         Type 2 - вільний - 13.99 ₴/⚡ Type 2 Plug - зайнятий - 13.99 ₴/⚡",
    "lat": 49.798953,
    "lng": 24.016997
  },
  {
    "name": "TOKA #472 Dragon Park Lviv (м. Львів, вул. Стрийська, 202)",
    "portsCount": "2",
    "portsComment": "\\n        \\n         Type 2 - вільний - 13.99 ₴/⚡ Type 1 - вільний - 13.99 ₴/⚡",
    "lat": 49.798965,
    "lng": 24.017001
  },
  {
    "name": "TOKA #459 EMILY RESORT (вулиця Хмельницького, 9б, Винники, Львівська область, Украина)",
    "portsCount": "2",
    "portsComment": "\\n        \\n         Type 2 - вільний - 12.99 ₴/⚡ Type 2 - вільний - 12.99 ₴/⚡",
    "lat": 49.8166,
    "lng": 24.1143
  },
  {
    "name": "TOKA #460 EMILY RESORT (вулиця Хмельницького, 9б, Винники, Львівська область, Украина)",
    "portsCount": "2",
    "portsComment": "\\n        \\n         Type 2 - вільний - 12.99 ₴/⚡ Type 1 - вільний - 12.99 ₴/⚡",
    "lat": 49.8165,
    "lng": 24.1144
  },
  {
    "name": "TOKA #469 EMILY RESORT (вулиця Хмельницького, 9б, Винники, Львівська область, Украина)",
    "portsCount": "2",
    "portsComment": "\\n        \\n         Type 2 - вільний - 12.99 ₴/⚡ Type 1 - вільний - 12.99 ₴/⚡",
    "lat": 49.812875,
    "lng": 24.11825
  },
  {
    "name": "TOKA #473 Lypky (Lypky)",
    "portsCount": "2",
    "portsComment": "\\n        \\n         Type 2 Plug - вільний - 8.88 ₴/⚡ Type 2 Plug - вільний - 8.88 ₴/⚡",
    "lat": 50.412185,
    "lng": 30.544295
  },
  {
    "name": "TOKA #474 Shaiba Charging Station (вул. Михайла Грушевського, 21, Пустомити, Львівська обл.)",
    "portsCount": "2",
    "portsComment": "\\n        \\n         Type 2 Plug - вільний - 14.99 ₴/⚡ Type 1 - вільний - 14.99 ₴/⚡",
    "lat": 49.719079,
    "lng": 23.903421
  },
  {
    "name": "TOKA #1011 DREAM berry Fast Charger (м. Київ, Оболонський просп., 21-б)",
    "portsCount": "4",
    "portsComment": "\\n        \\n         CHAdeMO - вільний - 17.99 ₴/⚡ CCS 2 - вільний - 17.99 ₴/⚡ Type 2 Plug - вільний - 15.99 ₴/⚡ Type 1 - вільний - 15.99 ₴/⚡",
    "lat": 50.514214,
    "lng": 30.498621
  },
  {
    "name": "TOKA #476 Home Station (Івана Франка, 4Б)",
    "portsCount": "2",
    "portsComment": "\\n        \\n         Type 2 Plug - вільний - 0.00 ₴/⚡ Type 2 Plug - вільний - 0.00 ₴/⚡",
    "lat": 50.450452,
    "lng": 30.50929
  },
  {
    "name": "TOKA# 396 TRUMP Charging Station (м. Київ, б-р. Миколи Міхновського (Дружби Народів), 32)",
    "portsCount": "2",
    "portsComment": "\\n        \\n         Type 1 - вільний - 13.99 ₴/⚡ Type 1 - вільний - 13.99 ₴/⚡",
    "lat": 50.418062,
    "lng": 30.54636
  },
  {
    "name": "TOKA #478 Skoda (проспект Перемоги, 67, Київ)",
    "portsCount": "2",
    "portsComment": "\\n        \\n         Type 2 - вільний - 0.00 ₴/⚡ Type 2 - вільний - 0.00 ₴/⚡",
    "lat": 50.458347,
    "lng": 30.407464
  },
  {
    "name": "TOKA #480 Lypky (Lypky)",
    "portsCount": "3",
    "portsComment": "\\n        \\n         Type 2 - вільний - 8.88 ₴/⚡ Type 2 Plug - вільний - 8.88 ₴/⚡ Type 2 Plug - вільний - 8.88 ₴/⚡",
    "lat": 50.412734,
    "lng": 30.544679
  },
  {
    "name": "TOKA #479 Lypky (Lypky)",
    "portsCount": "5",
    "portsComment": "\\n        \\n         Type 2 Plug - вільний - 8.88 ₴/⚡ Type 2 Plug - вільний - 8.88 ₴/⚡ Type 2 Plug - вільний - 8.88 ₴/⚡ Type 2 Plug - вільний - 8.88 ₴/⚡ Type 2 - вільний - 8.88 ₴/⚡",
    "lat": 50.410935,
    "lng": 30.544541
  },
  {
    "name": "TOKA# 481 Demiivska-Buyko City Station (м. Київ, вул. Професора Буйка, 29)",
    "portsCount": "3",
    "portsComment": "\\n        \\n         Type 1 - вільний - 13.99 ₴/⚡ Type 2 - вільний - 12.99 ₴/⚡ Type 1 - вільний - 12.99 ₴/⚡",
    "lat": 50.400558,
    "lng": 30.505804
  },
  {
    "name": "TOKA #979 NEW WAY  (м. Київ, вул. Архитектора Вербицького, 1)",
    "portsCount": "3",
    "portsComment": "\\n        \\n         Type 2 - вільний - 13.99 ₴/⚡ Type 1 - вільний - 13.99 ₴/⚡ Type 1 - вільний - 13.99 ₴/⚡",
    "lat": 50.41314,
    "lng": 30.651477
  },
  {
    "name": "TOKA #485 Miska Rada (м. Кам'янець-Подільський, вул. Лесі Українки, 32)",
    "portsCount": "1",
    "portsComment": "\\n        \\n         Type 2 Plug - вільний - 14.99 ₴/⚡",
    "lat": 48.678425,
    "lng": 26.583894
  },
  {
    "name": "TOKA #486 Lypky (Lypky)",
    "portsCount": "4",
    "portsComment": "\\n        \\n         Type 2 - вільний - 8.88 ₴/⚡ Type 2 Plug - зайнятий - 8.88 ₴/⚡ Type 2 Plug - вільний - 8.88 ₴/⚡ Type 2 Plug - вільний - 8.88 ₴/⚡",
    "lat": 50.409417,
    "lng": 30.544565
  },
  {
    "name": "ТОКА #489 Admiralskiy (м. Одеса, Адміральський проспект, 34А)",
    "portsCount": "1",
    "portsComment": "\\n        \\n         Type 1 - вільний - 15.99 ₴/⚡",
    "lat": 46.438146,
    "lng": 30.730743
  },
  {
    "name": "TOKA #487 Lypky (Lypky)",
    "portsCount": "6",
    "portsComment": "\\n        \\n         Type 2 - зайнятий - 8.88 ₴/⚡ Type 2 Plug - вільний - 8.88 ₴/⚡ Type 2 Plug - зайнятий - 8.88 ₴/⚡ Type 2 Plug - вільний - 8.88 ₴/⚡ Type 2 Plug - вільний - 8.88 ₴/⚡ Type 2 Plug - вільний - 8.88 ₴/⚡",
    "lat": 50.410497,
    "lng": 30.545681
  },
  {
    "name": "TOKA #488 Lypky (Lypky)",
    "portsCount": "2",
    "portsComment": "\\n        \\n         Type 2 - вільний - 8.88 ₴/⚡ Type 2 Plug - зайнятий - 8.88 ₴/⚡",
    "lat": 50.41038,
    "lng": 30.546744
  },
  {
    "name": "TOKA #501 Lypky (Lypky)",
    "portsCount": "3",
    "portsComment": "\\n        \\n         Type 2 Plug - вільний - 8.88 ₴/⚡ Type 2 Plug - вільний - 8.88 ₴/⚡ Type 2 Plug - вільний - 8.88 ₴/⚡",
    "lat": 50.410341,
    "lng": 30.545586
  },
  {
    "name": "TOKA #494 HVOYA ()",
    "portsCount": "2",
    "portsComment": "\\n        \\n         Type 2 - вільний - 0.00 ₴/⚡ Type 1 - вільний - 0.00 ₴/⚡",
    "lat": 48.357616,
    "lng": 24.410806
  },
  {
    "name": "TOKA #495 BAT ()",
    "portsCount": "3",
    "portsComment": "\\n        \\n         Type 2 Plug - вільний - 0.00 ₴/⚡ Type 2 Plug - вільний - 0.00 ₴/⚡ Type 1 - вільний - 0.00 ₴/⚡",
    "lat": 50.606466,
    "lng": 32.387344
  },
  {
    "name": "TOKA #1003 Piramida Fast Charger (м. Київ, вул. Олександра Мишуги, 4)",
    "portsCount": "4",
    "portsComment": "\\n        \\n         CCS 2/CCS 1 - вільний - 15.99 ₴/⚡ Type 2 Plug - вільний - 12.99 ₴/⚡ Type 1 - вільний - 12.99 ₴/⚡ GB/T DC - вільний - 15.99 ₴/⚡",
    "lat": 50.398226,
    "lng": 30.638041
  },
  {
    "name": "TOKA #502 Lypky (Lypky)",
    "portsCount": "1",
    "portsComment": "\\n        \\n         Type 2 Plug - вільний - 8.88 ₴/⚡",
    "lat": 50.410807,
    "lng": 30.546724
  },
  {
    "name": "TOKA #521 OKKO Gas Station (Фастівський р-н, тг Боярська, автодорога Київське півкільце-Крюківщина-Боярка, 6 км+922 м (Тарасівка))",
    "portsCount": "2",
    "portsComment": "\\n        \\n         Type 2 - невідомий - 12.99 ₴/⚡ Type 2 - невідомий - 12.99 ₴/⚡",
    "lat": 50.358589,
    "lng": 30.34371
  },
  {
    "name": "TOKA #522 Westhill (урочище Вишні ,329, Поляниця, Івано-Франківська область)",
    "portsCount": "2",
    "portsComment": "\\n        \\n         Type 2 Plug - вільний - 0.00 ₴/⚡ Type 1 - вільний - 0.00 ₴/⚡",
    "lat": 48.363234,
    "lng": 24.41745
  },
  {
    "name": "TOKA #523 Rest&Ski Apartments (570, Поляниця, Івано-Франківська область, Украина)",
    "portsCount": "2",
    "portsComment": "\\n        \\n         Type 2 Plug - вільний - 0.00 ₴/⚡ Type 1 - вільний - 0.00 ₴/⚡",
    "lat": 48.363262,
    "lng": 24.417319
  },
  {
    "name": "TOKA #524 Rest&Ski Apartments (570, Поляниця, Івано-Франківська область, Украина)",
    "portsCount": "2",
    "portsComment": "\\n        \\n         Type 2 Plug - вільний - 0.00 ₴/⚡ Type 1 - вільний - 0.00 ₴/⚡",
    "lat": 48.363166,
    "lng": 24.417226
  },
  {
    "name": "TOKA #525 Rest&Ski Apartments (570, Поляниця, Івано-Франківська область, Украина)",
    "portsCount": "2",
    "portsComment": "\\n        \\n         Type 2 Plug - вільний - 0.00 ₴/⚡ Type 1 - вільний - 0.00 ₴/⚡",
    "lat": 48.36313,
    "lng": 24.417346
  },
  {
    "name": "TOKA #530 AZUZ-KVITKA (вулиця Курортний проїзд 1 смт. Брюховичі, Львівська обл.)",
    "portsCount": "3",
    "portsComment": "\\n        \\n         Type 1 - вільний - 14.99 ₴/⚡ Type 2 - вільний - 14.99 ₴/⚡ Type 2 Plug - вільний - 14.99 ₴/⚡",
    "lat": 49.905452,
    "lng": 23.943959
  },
  {
    "name": "TOKA #531 AZUZ-Holosko (м. Львів, вул. Під Голоском, 2а)",
    "portsCount": "3",
    "portsComment": "\\n        \\n         Type 1 - вільний - 14.99 ₴/⚡ Type 2 Plug - відключений - 14.99 ₴/⚡ Type 2 - вільний - 14.99 ₴/⚡",
    "lat": 49.869432,
    "lng": 24.011798
  },
  {
    "name": "TOKA #532 Private station ()",
    "portsCount": "2",
    "portsComment": "\\n        \\n         Type 2 Plug - зайнятий - 0.00 ₴/⚡ GB/T AC - вільний - 0.00 ₴/⚡",
    "lat": 50.340016,
    "lng": 30.293388
  },
  {
    "name": "TOKA #1006 DOMA Center Fast Charger (вул. Будівельників, 40 м. Київ)",
    "portsCount": "4",
    "portsComment": "\\n        \\n         CHAdeMO - вільний - 16.99 ₴/⚡ CCS 2/CCS 1 - вільний - 17.99 ₴/⚡ Type 2 Plug - вільний - 13.99 ₴/⚡ Type 1 - вільний - 13.99 ₴/⚡",
    "lat": 50.454325,
    "lng": 30.611586
  },
  {
    "name": "TOKA #989 OKKO Gas Station (вул. Милославська, 2-А, Київ)",
    "portsCount": "1",
    "portsComment": "\\n        \\n         Type 2/Type 1 - зайнятий - 12.99 ₴/⚡",
    "lat": 50.533448,
    "lng": 30.606664
  },
  {
    "name": "TOKA #1016 Desna Sky (м. Київ, вул. Оноре де Бальзака, 85)",
    "portsCount": "4",
    "portsComment": "\\n        \\n         CCS 2 - вільний - 15.99 ₴/⚡ Type 2 Plug - зайнятий - 12.99 ₴/⚡ Type 1 - зайнятий - 12.99 ₴/⚡ GB/T DC - вільний - 15.99 ₴/⚡",
    "lat": 50.531131,
    "lng": 30.608068
  },
  {
    "name": "TOKA #541 SILPO (вул. Люстдорфська дорога, 54, Одеса)",
    "portsCount": "2",
    "portsComment": "\\n        \\n         Type 2 Plug - зайнятий - 14.99 ₴/⚡ Type 1 - вільний - 14.99 ₴/⚡",
    "lat": 46.435297,
    "lng": 30.72623
  },
  {
    "name": "TOKA #542 OKKO Gas Station (м.Дніпро, вул.Космічна, 32 А)",
    "portsCount": "2",
    "portsComment": "\\n        \\n         Type 2 Plug - вільний - 13.99 ₴/⚡ Type 1 - вільний - 13.99 ₴/⚡",
    "lat": 48.411786,
    "lng": 35.039988
  },
  {
    "name": "TOKA #503 Lypky (Lypky)",
    "portsCount": "1",
    "portsComment": "\\n        \\n         Type 2 - вільний - 8.88 ₴/⚡",
    "lat": 50.412215,
    "lng": 30.544635
  },
  {
    "name": "TOKA #504 Lypky (Lypky)",
    "portsCount": "5",
    "portsComment": "\\n        \\n         Type 2 Plug - невідомий - 8.88 ₴/⚡ Type 1 - невідомий - 8.88 ₴/⚡ Type 1 - невідомий - 8.88 ₴/⚡ Type 1 - невідомий - 8.88 ₴/⚡ Type 1 - невідомий - 8.88 ₴/⚡",
    "lat": 50.412,
    "lng": 30.548173
  },
  {
    "name": "TOKA #544 Umanpivo Fast Charger (Умань, вул. Дерев'янка, 21)",
    "portsCount": "3",
    "portsComment": "\\n        \\n         CCS 2 - вільний - 17.99 ₴/⚡ CHAdeMO - вільний - 17.99 ₴/⚡ Type 2 Plug - вільний - 13.99 ₴/⚡",
    "lat": 48.733722,
    "lng": 30.171824
  },
  {
    "name": "TOKA #545 Lider billiards Rapid Charger (вул. Семена Скляренка, 5, Київ)",
    "portsCount": "3",
    "portsComment": "\\n        \\n         CHAdeMO - вільний - 15.99 ₴/⚡ CCS 2 - вільний - 16.99 ₴/⚡ GB/T DC - вільний - 16.99 ₴/⚡",
    "lat": 50.493341,
    "lng": 30.468395
  },
  {
    "name": "TOKA #546 Suvorovskii NEW (м. Одеса, 1-й км. Новомиколаївської дороги)",
    "portsCount": "1",
    "portsComment": "\\n        \\n         Type 2/Type 1 - невідомий - 14.99 ₴/⚡",
    "lat": 46.599298,
    "lng": 30.806681
  },
  {
    "name": "TOKA #1118 Umanpivo (Умань, вул. Дерев'янка, 21)",
    "portsCount": "2",
    "portsComment": "\\n        \\n         Type 2 - вільний - 13.99 ₴/⚡ Type 1 - вільний - 13.99 ₴/⚡",
    "lat": 48.733761,
    "lng": 30.171194
  },
  {
    "name": "TOKA #550 OKKO Gas Station Fast Charger (Бориспільський р-н, с/р Іванківська, а/д Київ-Харків-Довжанський, 45 км+20 м)",
    "portsCount": "3",
    "portsComment": "\\n        \\n         CCS 2 - вільний - 16.99 ₴/⚡ CHAdeMO - вільний - 15.99 ₴/⚡ Type 2 Plug - вільний - 12.99 ₴/⚡",
    "lat": 50.320043,
    "lng": 31.034659
  },
  {
    "name": "TOKA #551 OKKO Gas Station Fast Charger (Гатненская с/р, а/д М-05 Киев-Одесса, 15 км+(450-622) м)",
    "portsCount": "3",
    "portsComment": "\\n        \\n         CCS 2 - вільний - 16.99 ₴/⚡ CHAdeMO - вільний - 15.99 ₴/⚡ Type 2 Plug - вільний - 12.99 ₴/⚡",
    "lat": 50.34403,
    "lng": 30.417863
  },
  {
    "name": "TOKA #552 OKKO Gas Station Fast Charger (Київська обл., смт. Чабани, Одеське шосе, 12)",
    "portsCount": "3",
    "portsComment": "\\n        \\n         CCS 2 - вільний - 16.99 ₴/⚡ CCS 2 - вільний - 16.99 ₴/⚡ Type 2 Plug - зайнятий - 12.99 ₴/⚡",
    "lat": 50.354634,
    "lng": 30.436243
  },
  {
    "name": "TOKA #554 OKKO Gas Station Fast Charger (вул. Стрийская, 34, Солонка, Львівська обл.)",
    "portsCount": "3",
    "portsComment": "\\n        \\n         CCS 2 - вільний - 16.99 ₴/⚡ CHAdeMO - вільний - 15.99 ₴/⚡ Type 2 Plug - вільний - 12.99 ₴/⚡",
    "lat": 49.743212,
    "lng": 24.0143
  },
  {
    "name": "TOKA #553 OKKO Gas Station Fast Charger (Рівненська обл., с. Біла Криниця, вул. Рівненська, 112)",
    "portsCount": "3",
    "portsComment": "\\n        \\n         CCS 2 - вільний - 16.99 ₴/⚡ CHAdeMO - вільний - 15.99 ₴/⚡ Type 2 Plug - вільний - 12.99 ₴/⚡",
    "lat": 50.604257,
    "lng": 26.401891
  },
  {
    "name": "TOKA #555 OKKO Gas Station Fast Charger (вул. Київська, 2, Гамаліївка, Львівська обл.)",
    "portsCount": "3",
    "portsComment": "\\n        \\n         CCS 2 - вільний - 16.99 ₴/⚡ CCS 2 - вільний - 16.99 ₴/⚡ Type 2 Plug - вільний - 12.99 ₴/⚡",
    "lat": 49.899099,
    "lng": 24.144583
  },
  {
    "name": "TOKA #556 OKKO Gas Station Fast Charger (вул. Стрийская, 34, Солонка, Львівська обл.)",
    "portsCount": "3",
    "portsComment": "\\n        \\n         CCS 2 - вільний - 16.99 ₴/⚡ CCS 2 - вільний - 16.99 ₴/⚡ Type 2 Plug - вільний - 12.99 ₴/⚡",
    "lat": 49.743095,
    "lng": 24.014383
  },
  {
    "name": "TOKA #557 OKKO Gas Station Fast Charger (вул. Героїв Маківки, 10, Сколе , Львівська обл.)",
    "portsCount": "3",
    "portsComment": "\\n        \\n         CCS 2 - вільний - 16.99 ₴/⚡ CHAdeMO - вільний - 15.99 ₴/⚡ Type 2 Plug - вільний - 12.99 ₴/⚡",
    "lat": 49.043674,
    "lng": 23.5104
  },
  {
    "name": "TOKA #558 OKKO Gas Station Fast Charger (Уманський р-н, с/р Фурманська, а/д Київ-Одеса, 226 км+700 м)",
    "portsCount": "3",
    "portsComment": "\\n        \\n         CCS 2 - вільний - 16.99 ₴/⚡ CHAdeMO - вільний - 15.99 ₴/⚡ Type 2 Plug - вільний - 12.99 ₴/⚡",
    "lat": 48.565868,
    "lng": 30.231049
  },
  {
    "name": "TOKA #559 OKKO Gas Station Fast Charger (Горбаків, вул. Центральна, 3-А)",
    "portsCount": "3",
    "portsComment": "\\n        \\n         CCS 2 - вільний - 16.99 ₴/⚡ CHAdeMO - вільний - 15.99 ₴/⚡ Type 2 Plug - вільний - 12.99 ₴/⚡",
    "lat": 50.604626,
    "lng": 26.613378
  },
  {
    "name": "TOKA #560 OKKO Gas Station Fast Charger (Уманський р-н, с/р Ладижинська, а/д Київ-Одеса 226 км+310 м (ліворуч))",
    "portsCount": "3",
    "portsComment": "\\n        \\n         CCS 2 - вільний - 16.99 ₴/⚡ CHAdeMO - вільний - 15.99 ₴/⚡ Type 2 Plug - вільний - 12.99 ₴/⚡",
    "lat": 48.567833,
    "lng": 30.232394
  },
  {
    "name": "TOKA #561 OKKO Gas Station Fast Charger (Горбаків, вул. Центральна, 3-А)",
    "portsCount": "3",
    "portsComment": "\\n        \\n         CCS 2/GBT DC - вільний - 16.99 ₴/⚡ CCS 2/GBT DC - вільний - 16.99 ₴/⚡ Type 2 Plug - вільний - 12.99 ₴/⚡",
    "lat": 50.604623,
    "lng": 26.613424
  },
  {
    "name": "TOKA #562 OKKO Gas Station Fast Charger (вул. Київська, 2, Гамаліївка, Львівська обл.)",
    "portsCount": "3",
    "portsComment": "\\n        \\n         CCS 2 - вільний - 16.99 ₴/⚡ CHAdeMO - вільний - 15.99 ₴/⚡ Type 2 Plug - вільний - 12.99 ₴/⚡",
    "lat": 49.899031,
    "lng": 24.144465
  },
  {
    "name": "TOKA #563 OKKO Gas Station Fast Charger (Житомирський р-н, с/р Левківська, а/д Київ-Чоп, 127км+198м)",
    "portsCount": "3",
    "portsComment": "\\n        \\n         CCS 2 - вільний - 16.99 ₴/⚡ CHAdeMO - вільний - 15.99 ₴/⚡ Type 2 Plug - вільний - 12.99 ₴/⚡",
    "lat": 50.286158,
    "lng": 28.826948
  },
  {
    "name": "TOKA #565 OKKO Gas Station Fast Charger (Біляївський р-н, с/р Нерубайська, автодорога Київ-Одеса 454 км, 1)",
    "portsCount": "3",
    "portsComment": "\\n        \\n         CCS 2 - вільний - 16.99 ₴/⚡ CCS 2 - вільний - 16.99 ₴/⚡ Type 2 Plug - вільний - 12.99 ₴/⚡",
    "lat": 46.575058,
    "lng": 30.575467
  },
  {
    "name": "TOKA #564 OKKO Gas Station Fast Charger (Київська обл., смт. Чабани, Одеське шосе, 12)",
    "portsCount": "3",
    "portsComment": "\\n        \\n         CCS 2 - вільний - 16.99 ₴/⚡ CHAdeMO - вільний - 15.99 ₴/⚡ Type 2 Plug - зайнятий - 12.99 ₴/⚡",
    "lat": 50.35471,
    "lng": 30.436131
  },
  {
    "name": "TOKA #566 OKKO Gas Station Fast Charger (Житомирський р-н, с/р Левківська, а/д Київ-Чоп, 127км+198м)",
    "portsCount": "3",
    "portsComment": "\\n        \\n         CCS 2/GBT DC - вільний - 16.99 ₴/⚡ CCS 2/GBT DC - вільний - 16.99 ₴/⚡ Type 2 Plug - вільний - 12.99 ₴/⚡",
    "lat": 50.286139,
    "lng": 28.826813
  },
  {
    "name": "TOKA #567 OKKO Gas Station Fast Charger (Гатненская с/р, а/д М-05 Киев-Одесса, 15 км+(450-622) м)",
    "portsCount": "3",
    "portsComment": "\\n        \\n         CCS 2 - вільний - 16.99 ₴/⚡ CCS 2 - вільний - 16.99 ₴/⚡ Type 2 Plug - вільний - 12.99 ₴/⚡",
    "lat": 50.344126,
    "lng": 30.417697
  },
  {
    "name": "TOKA #568 OKKO Gas Station Fast Charger (вул. Київська, 50-52, Калинівка, Київська обл.)",
    "portsCount": "3",
    "portsComment": "\\n        \\n         CCS 2/GBT DC - вільний - 16.99 ₴/⚡ CCS 2/GBT DC - вільний - 16.99 ₴/⚡ Type 2 Plug - вільний - 12.99 ₴/⚡",
    "lat": 50.419415,
    "lng": 29.842269
  },
  {
    "name": "TOKA #584  Orly Park hotel (бульвар Вацлава Гавела, 9В, Київ)",
    "portsCount": "2",
    "portsComment": "\\n        \\n         Type 2 - вільний - 12.99 ₴/⚡ Type 1 - вільний - 12.99 ₴/⚡",
    "lat": 50.44397,
    "lng": 30.426378
  },
  {
    "name": "TOKA #2006 Grinchenko Fast Charger (вул. Бориса Грінченка, 1, м. Київ)",
    "portsCount": "4",
    "portsComment": "\\n        \\n         CCS 2/CCS 1 - вільний - 16.99 ₴/⚡ Type 2 Plug - вільний - 14.99 ₴/⚡ Type 1 - вільний - 14.99 ₴/⚡ GB/T DC - вільний - 16.99 ₴/⚡",
    "lat": 50.449836,
    "lng": 30.521582
  },
  {
    "name": "TOKA #615 Palace of Sports (Спортивна площа, 1, м. Київ)",
    "portsCount": "4",
    "portsComment": "\\n        \\n         CCS 2/CCS 1 - вільний - 16.99 ₴/⚡ Type 2 Plug - вільний - 12.99 ₴/⚡ Type 1 - вільний - 12.99 ₴/⚡ GB/T DC - вільний - 16.99 ₴/⚡",
    "lat": 50.437879,
    "lng": 30.522919
  },
  {
    "name": "TOKA #1000 NOVUS Fast Charger (вулиця Здолбунівська, 7г, Київ)",
    "portsCount": "4",
    "portsComment": "\\n        \\n         CCS 2 - невідомий - 16.99 ₴/⚡ Type 2 Plug - невідомий - 12.99 ₴/⚡ Type 1 - невідомий - 12.99 ₴/⚡ GB/T DC - невідомий - 16.99 ₴/⚡",
    "lat": 50.411775,
    "lng": 30.605387
  },
  {
    "name": "TOKA #582 OKKO Gas Station Fast Charger (вул. Березова, 1-А, Броди, Львівська обл.)",
    "portsCount": "3",
    "portsComment": "\\n        \\n         CCS 2/GBT DC - вільний - 16.99 ₴/⚡ CCS 2/GBT DC - вільний - 16.99 ₴/⚡ Type 2 Plug - вільний - 12.99 ₴/⚡",
    "lat": 50.067683,
    "lng": 25.163835
  },
  {
    "name": "TOKA #575 OKKO Gas Station Fast Charger (вул. Березова, 1-А, Броди, Львівська обл.)",
    "portsCount": "3",
    "portsComment": "\\n        \\n         CCS 2 - вільний - 16.99 ₴/⚡ CHAdeMO - вільний - 15.99 ₴/⚡ Type 2 Plug - вільний - 12.99 ₴/⚡",
    "lat": 50.067613,
    "lng": 25.163626
  },
  {
    "name": "TOKA #581 OKKO Gas Station Fast Charger (вул. Героїв Маківки, 10, Сколе , Львівська обл.)",
    "portsCount": "3",
    "portsComment": "\\n        \\n         CCS 2 - вільний - 16.99 ₴/⚡ CCS 2 - вільний - 16.99 ₴/⚡ Type 2 Plug - вільний - 12.99 ₴/⚡",
    "lat": 49.043537,
    "lng": 23.51047
  },
  {
    "name": "FASTER #586 Tandyr restaurant (Київська область, смт. Козин, вул. Київська, буд. 11-д)",
    "portsCount": "3",
    "portsComment": "\\n        \\n         Type 2 - вільний - 15.99 ₴/⚡ Type 1 - вільний - 15.99 ₴/⚡ Type 1 - вільний - 15.99 ₴/⚡",
    "lat": 50.229753,
    "lng": 30.64161
  },
  {
    "name": "TOKA #588 Сar wash 24/7 (м. Івано Франківськ  вул. Максимовича 10)",
    "portsCount": "4",
    "portsComment": "\\n        \\n         CHAdeMO - вільний - 15.99 ₴/⚡ CCS 2/CCS 1 - вільний - 15.99 ₴/⚡ Type 2 Plug - вільний - 12.99 ₴/⚡ GB/T AC - відключений - 12.99 ₴/⚡",
    "lat": 48.939224,
    "lng": 24.721958
  },
  {
    "name": "TOKA #516 Lypky (Lypky)",
    "portsCount": "1",
    "portsComment": "\\n        \\n         Type 2 Plug - вільний - 8.88 ₴/⚡",
    "lat": 50.410328,
    "lng": 30.545334
  },
  {
    "name": "TOKA #590 Stara Pravda (вул. Подина 62A, Поляниця, Івано-Франківська обл.)",
    "portsCount": "2",
    "portsComment": "\\n        \\n         Type 2 Plug - вільний - 13.99 ₴/⚡ Type 1 - вільний - 13.99 ₴/⚡",
    "lat": 48.35171,
    "lng": 24.443831
  },
  {
    "name": "TOKA #591 Comfort Town - Novus (м. Київ вул. Регенераторна, 4а)",
    "portsCount": "3",
    "portsComment": "\\n        \\n         Type 2 - вільний - 10.50 ₴/⚡ Type 1 - зайнятий - 10.50 ₴/⚡ Type 1 - зайнятий - 10.50 ₴/⚡",
    "lat": 50.437987,
    "lng": 30.621245
  },
  {
    "name": "TOKA #592 Сomfort Town Reg4/korp15 [тільки для мешканців] (м. Київ вул. Регенераторна,4 корпус 15)",
    "portsCount": "3",
    "portsComment": "\\n        \\n         Type 2 - вільний - 10.50 ₴/⚡ Type 1 - вільний - 10.50 ₴/⚡ Type 1 - вільний - 10.50 ₴/⚡",
    "lat": 50.43226,
    "lng": 30.620518
  },
  {
    "name": "TOKA #593 Bokovenka (Кудашівка, Дніпропетровська область, Україна)",
    "portsCount": "3",
    "portsComment": "\\n        \\n         Type 2 - вільний - 0.00 ₴/⚡ Type 2 Plug - вільний - 0.00 ₴/⚡ Type 2 Plug - вільний - 0.00 ₴/⚡",
    "lat": 47.97641,
    "lng": 33.140558
  },
  {
    "name": "FASTER #594 EKO-market (м. Ірпінь, вул. Соборна, 105)",
    "portsCount": "3",
    "portsComment": "\\n        \\n         Type 2 - вільний - 14.99 ₴/⚡ Type 1 - вільний - 14.99 ₴/⚡ Type 1 - вільний - 14.99 ₴/⚡",
    "lat": 50.518647,
    "lng": 30.238345
  },
  {
    "name": "TOKA #984 EKO-market (вул. Миколи Закревського 12, м. Київ)",
    "portsCount": "3",
    "portsComment": "\\n        \\n         Type 2 - вільний - 12.99 ₴/⚡ Type 1 - вільний - 12.99 ₴/⚡ Type 1 - вільний - 12.99 ₴/⚡",
    "lat": 50.49957,
    "lng": 30.609304
  },
  {
    "name": "FASTER #597 TIP TOP tire service (м. Київ, вул Межигірська 78)",
    "portsCount": "3",
    "portsComment": "\\n        \\n         Type 2 - вільний - 13.99 ₴/⚡ Type 1 - вільний - 13.99 ₴/⚡ Type 1 - вільний - 13.99 ₴/⚡",
    "lat": 50.475543,
    "lng": 30.506728
  },
  {
    "name": "FASTER #598 Bogolvar hotel  ( Закарпатська область, с. Анталовці, вул. Миру, 17-А)",
    "portsCount": "3",
    "portsComment": "\\n        \\n         Type 2 - вільний - 12.99 ₴/⚡ Type 1 - вільний - 12.99 ₴/⚡ Type 1 - вільний - 12.99 ₴/⚡",
    "lat": 48.621018,
    "lng": 22.512327
  },
  {
    "name": "TOKA #599 Aerostar (Відрадний проспект, 95, Київ)",
    "portsCount": "2",
    "portsComment": "\\n        \\n         Type 2 Plug - зайнятий - 0.00 ₴/⚡ Type 2 Plug - вільний - 0.00 ₴/⚡",
    "lat": 50.419308,
    "lng": 30.426562
  },
  {
    "name": "TOKA #505 Lypky (Lypky)",
    "portsCount": "1",
    "portsComment": "\\n        \\n         Type 2 Plug - вільний - 8.88 ₴/⚡",
    "lat": 50.408674,
    "lng": 30.544449
  },
  {
    "name": "TOKA #574 OKKO Gas Station Fast Charger (вул. Київська, 50-52, Калинівка, Київська обл.)",
    "portsCount": "3",
    "portsComment": "\\n        \\n         CCS 2 - вільний - 16.99 ₴/⚡ CHAdeMO - вільний - 15.99 ₴/⚡ Type 2 Plug - вільний - 12.99 ₴/⚡",
    "lat": 50.41955,
    "lng": 29.842176
  },
  {
    "name": "TOKA #569 OKKO Gas Station Fast Charger (вул. Київська, 3-В, Калинівка, Київська обл.)",
    "portsCount": "3",
    "portsComment": "\\n        \\n         CCS 2 - вільний - 16.99 ₴/⚡ CCS 2 - вільний - 16.99 ₴/⚡ Type 2 Plug - вільний - 12.99 ₴/⚡",
    "lat": 50.41791,
    "lng": 29.841186
  },
  {
    "name": "TOKA #573 OKKO Gas Station Fast Charger (вул. Київська, 3-В, Калинівка, Київська обл.)",
    "portsCount": "3",
    "portsComment": "\\n        \\n         CCS 2 - вільний - 16.99 ₴/⚡ CHAdeMO - вільний - 15.99 ₴/⚡ Type 2 Plug - вільний - 12.99 ₴/⚡",
    "lat": 50.417993,
    "lng": 29.84066
  },
  {
    "name": "TOKA #604 DIAMOND RESORT (вул. Стаїще, 377, Буковель, Івано-Франківська обл.)",
    "portsCount": "2",
    "portsComment": "\\n        \\n         Type 2 Plug - зайнятий - 12.99 ₴/⚡ Type 1 - вільний - 12.99 ₴/⚡",
    "lat": 48.349098,
    "lng": 24.434761
  },
  {
    "name": "TOKA #605 Skogur Home & Resort (Івано-Франківська область, с. Яблуниця)",
    "portsCount": "2",
    "portsComment": "\\n        \\n         Type 2 Plug - вільний - 17.99 ₴/⚡ Type 1 - вільний - 17.99 ₴/⚡",
    "lat": 48.319546,
    "lng": 24.470849
  },
  {
    "name": "TOKA #1010 Silpo Rayduzhna (м. Київ, вул. Райдужна, 15)",
    "portsCount": "3",
    "portsComment": "\\n        \\n         CCS 2 - вільний - 15.99 ₴/⚡ GB/T DC - відключений - 15.99 ₴/⚡ Type 2 Plug - вільний - 12.99 ₴/⚡",
    "lat": 50.486912,
    "lng": 30.585402
  },
  {
    "name": "TOKA #576 OKKO Gas Station Fast Charger (Бориспільський р-н, с/р Іванківська, а/д Київ-Харків-Довжанський, 45 км+250 м)",
    "portsCount": "3",
    "portsComment": "\\n        \\n         CCS 2 - вільний - 16.99 ₴/⚡ CHAdeMO - вільний - 15.99 ₴/⚡ Type 2 Plug - вільний - 12.99 ₴/⚡",
    "lat": 50.317903,
    "lng": 31.035645
  },
  {
    "name": "TOKA #579 OKKO Gas Station Fast Charger (Бориспільський р-н, с/р Іванківська, а/д Київ-Харків-Довжанський, 45 км+250 м)",
    "portsCount": "3",
    "portsComment": "\\n        \\n         CCS 2 - вільний - 16.99 ₴/⚡ CCS 2 - вільний - 16.99 ₴/⚡ Type 2 Plug - вільний - 12.99 ₴/⚡",
    "lat": 50.318004,
    "lng": 31.035402
  },
  {
    "name": "TOKA #571 OKKO Gas Station Fast Charger (Бориспільський р-н, с/р Іванківська, а/д Київ-Харків-Довжанський, 45 км+20 м)",
    "portsCount": "3",
    "portsComment": "\\n        \\n         CCS 2 - вільний - 16.99 ₴/⚡ CCS 2 - вільний - 16.99 ₴/⚡ Type 2 Plug - вільний - 12.99 ₴/⚡",
    "lat": 50.320231,
    "lng": 31.034836
  },
  {
    "name": "TOKA #607 Svoi Arena (бульвар Вацлава Гавела, 26, Київ)",
    "portsCount": "2",
    "portsComment": "\\n        \\n         Type 2 Plug - вільний - 15.99 ₴/⚡ Type 1 - вільний - 15.99 ₴/⚡",
    "lat": 50.430986,
    "lng": 30.413218
  },
  {
    "name": "TOKA #2031 Epicentr Fast Charger (м. Рівне, вул. Кулика і Гудачека (Макарова),  17)",
    "portsCount": "4",
    "portsComment": "\\n        \\n         CHAdeMO - вільний - 16.89 ₴/⚡ CCS 2 - вільний - 16.89 ₴/⚡ Type 2 - вільний - 12.99 ₴/⚡ GB/T DC - вільний - 16.89 ₴/⚡",
    "lat": 50.6218,
    "lng": 26.203188
  },
  {
    "name": "TOKA #1031 OKKO Gas Station Fast Charger (Біляївський р-н, с/р Нерубайська, автодорога Київ-Одеса 454 км, 2)",
    "portsCount": "3",
    "portsComment": "\\n        \\n         CCS 2 - вільний - 16.99 ₴/⚡ CCS 2 - вільний - 16.99 ₴/⚡ Type 2 Plug - вільний - 12.99 ₴/⚡",
    "lat": 46.573748,
    "lng": 30.573871
  },
  {
    "name": "TOKA #570 OKKO Gas Station Fast Charger (Біляївський р-н, с/р Нерубайська, автодорога Київ-Одеса 454 км, 1)",
    "portsCount": "3",
    "portsComment": "\\n        \\n         CCS 2 - вільний - 16.99 ₴/⚡ CHAdeMO - вільний - 15.99 ₴/⚡ Type 2 Plug - вільний - 12.99 ₴/⚡",
    "lat": 46.575002,
    "lng": 30.575552
  },
  {
    "name": "TOKA #616 [JBE] OKKO Gas Station (м. Львів, вул. Личаківська, 152-Б)",
    "portsCount": "4",
    "portsComment": "\\n        \\n         CHAdeMO - відключений - 15.99 ₴/⚡ CCS 2/CCS 1 - вільний - 15.99 ₴/⚡ Type 2 Plug - відключений - 12.99 ₴/⚡ Type 1 - вільний - 12.99 ₴/⚡",
    "lat": 49.835751,
    "lng": 24.068788
  },
  {
    "name": "FASTER #614 NOVUS Fast Charger (м. Київ, вул вулиця Івана Кавалерідзе, 1А)",
    "portsCount": "4",
    "portsComment": "\\n        \\n         CHAdeMO - вільний - 15.99 ₴/⚡ CCS 2 - вільний - 15.99 ₴/⚡ Type 2 Plug - вільний - 15.99 ₴/⚡ Type 1 - вільний - 15.99 ₴/⚡",
    "lat": 50.495134,
    "lng": 30.425697
  },
  {
    "name": "TOKA #506 Lypky (Lypky)",
    "portsCount": "1",
    "portsComment": "\\n        \\n         Type 2 Plug - вільний - 8.88 ₴/⚡",
    "lat": 50.412394,
    "lng": 30.544407
  },
  {
    "name": "TOKA #619 Eco Status, лікарня Святого Луки. (м. Львів, вул. Навроцького, 23)",
    "portsCount": "2",
    "portsComment": "\\n        \\n         Type 2 Plug - вільний - 15.99 ₴/⚡ Type 1 - вільний - 15.99 ₴/⚡",
    "lat": 49.813525,
    "lng": 24.048454
  },
  {
    "name": "TOKA #620 Eco Status, лікарня Святого Пантелеймона. (вул. Івана Миколайчука, 9, м. Львів)",
    "portsCount": "2",
    "portsComment": "\\n        \\n         Type 2 Plug - вільний - 15.99 ₴/⚡ Type 1 - вільний - 15.99 ₴/⚡",
    "lat": 49.873371,
    "lng": 24.039073
  },
  {
    "name": "TOKA #507 Lypky (Lypky)",
    "portsCount": "2",
    "portsComment": "\\n        \\n         Type 2 Plug - вільний - 8.88 ₴/⚡ Type 2 Plug - вільний - 8.88 ₴/⚡",
    "lat": 50.410837,
    "lng": 30.54533
  },
  {
    "name": "TOKA #617 Electric car charging (вул. Молодіжна, 48Б, Вільногірськ, Дніпропетровська обл.)",
    "portsCount": "1",
    "portsComment": "\\n        \\n         Type 1 - вільний - 12.99 ₴/⚡",
    "lat": 48.470844,
    "lng": 34.016146
  },
  {
    "name": "TOKA #621 STO Avto-Karolina (вул. Миру, 71, Драгомирчани, Івано-Франківська обл.)",
    "portsCount": "3",
    "portsComment": "\\n        \\n         GB/T AC - вільний - 17.99 ₴/⚡ Type 1 - вільний - 17.99 ₴/⚡ Type 2 Plug - вільний - 17.99 ₴/⚡",
    "lat": 48.882238,
    "lng": 24.630735
  },
  {
    "name": "TOKA #624 Aquadar (Черкаська обл.  смт. Маньківка, вул. Лісова, буд. 1)",
    "portsCount": "2",
    "portsComment": "\\n        \\n         Type 2 - зайнятий - 0.00 ₴/⚡ Type 1 - вільний - 0.00 ₴/⚡",
    "lat": 48.964582,
    "lng": 30.384804
  },
  {
    "name": "TOKA #626 T-79 Station (Київська область, село Копилів , вул. Копилівська 3)",
    "portsCount": "2",
    "portsComment": "\\n        \\n         Type 2 - невідомий - 12.99 ₴/⚡ Type 1 - невідомий - 12.99 ₴/⚡",
    "lat": 50.421472,
    "lng": 29.882292
  },
  {
    "name": "TOKA #627 GONCHARI (Київська область, Богуславський район, с.Дибинці, вул. Ланок, 45)",
    "portsCount": "3",
    "portsComment": "\\n        \\n         Type 2 - вільний - 13.99 ₴/⚡ Type 2 Plug - вільний - 13.99 ₴/⚡ Type 1 - вільний - 13.99 ₴/⚡",
    "lat": 49.535845,
    "lng": 30.798382
  },
  {
    "name": "TOKA #1015 4kolesa (вул. Друга Запорізька, 1 масив Промінь Пристоличної с/р, Бориспільського р-ну Київської обл.)",
    "portsCount": "4",
    "portsComment": "\\n        \\n         CHAdeMO - вільний - 17.99 ₴/⚡ CCS 2 - вільний - 17.99 ₴/⚡ Type 2 - вільний - 14.49 ₴/⚡ GB/T DC - вільний - 17.99 ₴/⚡",
    "lat": 50.381164,
    "lng": 30.919459
  },
  {
    "name": "TOKA #630 Sonjachnuy Maydan (Львівська область, Солонка, вул..Орлика, 1Б)",
    "portsCount": "1",
    "portsComment": "\\n        \\n         Type 1 - вільний - 10.99 ₴/⚡",
    "lat": 49.756292,
    "lng": 24.015869
  },
  {
    "name": "TOKA #631 Sonjachnuy Maydan (Львівська область, Солонка, вул..Орлика, 1Б)",
    "portsCount": "1",
    "portsComment": "\\n        \\n         Type 2 Plug - вільний - 10.99 ₴/⚡",
    "lat": 49.756263,
    "lng": 24.015878
  },
  {
    "name": "TOKA #632 KomfortMD (вул. Текстильна, 28-В, м, Тернопіль)",
    "portsCount": "4",
    "portsComment": "\\n        \\n         CHAdeMO - вільний - 15.50 ₴/⚡ CCS 2 - вільний - 15.50 ₴/⚡ Type 2 Plug - зайнятий - 11.99 ₴/⚡ Type 1 - зайнятий - 11.99 ₴/⚡",
    "lat": 49.574606,
    "lng": 25.638074
  },
  {
    "name": "TOKA #634 Fast Charger (вул. Окружна, 127, Кривий Ріг)",
    "portsCount": "4",
    "portsComment": "\\n        \\n         CHAdeMO - вільний - 16.99 ₴/⚡ CCS 2 - вільний - 16.99 ₴/⚡ Type 2 - вільний - 14.99 ₴/⚡ GB/T DC - вільний - 16.99 ₴/⚡",
    "lat": 47.932859,
    "lng": 33.318854
  },
  {
    "name": "TOKA #622 NEMO (м. Одеса, Пляж Ланжерон, 1)",
    "portsCount": "3",
    "portsComment": "\\n        \\n         Type 2 Plug - вільний - 14.99 ₴/⚡ Type 1 - вільний - 14.99 ₴/⚡ GB/T AC - вільний - 14.99 ₴/⚡",
    "lat": 46.476809,
    "lng": 30.764765
  },
  {
    "name": "TOKA #2009 Promenada Fast Charger (вул. Багговутівська, 17-21, м. Київ)",
    "portsCount": "4",
    "portsComment": "\\n        \\n         CHAdeMO - вільний - 15.99 ₴/⚡ CCS 2 - вільний - 16.99 ₴/⚡ Type 2 - вільний - 12.99 ₴/⚡ GB/T DC - вільний - 16.99 ₴/⚡",
    "lat": 50.470811,
    "lng": 30.478261
  },
  {
    "name": "TOKA #635 Kurmanovycha 120kW (вулиця Генерала Курмановича, 2а, Львів)",
    "portsCount": "4",
    "portsComment": "\\n        \\n         CHAdeMO - вільний - 18.49 ₴/⚡ CCS 2 - вільний - 18.49 ₴/⚡ Type 2 Plug - вільний - 14.99 ₴/⚡ Type 1 - зайнятий - 14.99 ₴/⚡",
    "lat": 49.82958,
    "lng": 23.9486
  },
  {
    "name": "TOKA #1005 NOVUS Fast Charger (м. Київ, просп. Броварський, 18-Д)",
    "portsCount": "4",
    "portsComment": "\\n        \\n         CHAdeMO - вільний - 16.99 ₴/⚡ CCS 2 - вільний - 16.99 ₴/⚡ Type 2 - вільний - 12.99 ₴/⚡ GB/T DC - вільний - 16.99 ₴/⚡",
    "lat": 50.466406,
    "lng": 30.654094
  },
  {
    "name": "TOKA #657 City Center Fast Charger (м. Одеса, просп. Небесної сотні, 2)",
    "portsCount": "4",
    "portsComment": "\\n        \\n         CHAdeMO - невідомий - 17.99 ₴/⚡ CCS 2 - невідомий - 18.99 ₴/⚡ Type 2 Plug - невідомий - 15.99 ₴/⚡ GB/T DC - невідомий - 18.99 ₴/⚡",
    "lat": 46.414848,
    "lng": 30.713301
  },
  {
    "name": "TOKA #638 EVoltiq Lagoda (м. Київ, вул. Польова, 21)",
    "portsCount": "4",
    "portsComment": "\\n        \\n         CHAdeMO - вільний - 15.99 ₴/⚡ CCS 2 - вільний - 16.99 ₴/⚡ Type 2 - вільний - 12.99 ₴/⚡ GB/T DC - вільний - 16.99 ₴/⚡",
    "lat": 50.444577,
    "lng": 30.453862
  },
  {
    "name": "TOKA #1073 Epicentr (м. Рівне, вул. Кулика і Гудачека (Макарова),  17)",
    "portsCount": "3",
    "portsComment": "\\n        \\n         Type 2 Plug - вільний - 12.99 ₴/⚡ Type 1 - вільний - 12.99 ₴/⚡ GB/T AC - вільний - 12.99 ₴/⚡",
    "lat": 50.621663,
    "lng": 26.20324
  },
  {
    "name": "TOKA #1071 Epicentr (м. Рівне, вул. Кулика і Гудачека (Макарова),  17)",
    "portsCount": "3",
    "portsComment": "\\n        \\n         Type 2 Plug - вільний - 12.99 ₴/⚡ Type 1 - зайнятий - 12.99 ₴/⚡ GB/T AC - вільний - 12.99 ₴/⚡",
    "lat": 50.621739,
    "lng": 26.203204
  },
  {
    "name": "TOKA #641 Avtomyyka ( вул. Привокзальна 7, Володимир, Волинська обл.)",
    "portsCount": "3",
    "portsComment": "\\n        \\n         Type 2 Plug - вільний - 12.99 ₴/⚡ Type 1 - вільний - 12.99 ₴/⚡ GB/T AC - вільний - 12.99 ₴/⚡",
    "lat": 50.83918,
    "lng": 24.335719
  },
  {
    "name": "TOKA #642 Epicentr Fast Charger (Хмельницька обл., м. Городок, вул. Шевченка, 39/15)",
    "portsCount": "4",
    "portsComment": "\\n        \\n         CHAdeMO - вільний - 15.99 ₴/⚡ CCS 2 - вільний - 15.99 ₴/⚡ Type 2 - вільний - 11.99 ₴/⚡ GB/T DC - вільний - 15.99 ₴/⚡",
    "lat": 49.178236,
    "lng": 26.573609
  },
  {
    "name": "TOKA #2034 Epicentr Fast Charger (Львівська обл., с. Сокільники, вул. Зубрівська, 27)",
    "portsCount": "4",
    "portsComment": "\\n        \\n         CCS 2 - вільний - 16.49 ₴/⚡ Type 2 Plug - вільний - 16.49 ₴/⚡ GB/T AC - вільний - 12.99 ₴/⚡ GB/T DC - вільний - 16.49 ₴/⚡",
    "lat": 49.771195,
    "lng": 24.002292
  },
  {
    "name": "TOKA #645 Respublika [тільки для мешканців] (вул.Теремківська, 4а, Київ)",
    "portsCount": "3",
    "portsComment": "\\n        \\n         Type 2 Plug - вільний - 12.99 ₴/⚡ Type 1 - зайнятий - 12.99 ₴/⚡ Type 1 - вільний - 12.99 ₴/⚡",
    "lat": 50.371275,
    "lng": 30.449033
  },
  {
    "name": "TOKA #939 VIP MYYKA (вул. Ярославська, 7, Черкаси)",
    "portsCount": "3",
    "portsComment": "\\n        \\n         Type 2 Plug - вільний - 14.99 ₴/⚡ Type 1 - вільний - 14.99 ₴/⚡ GB/T AC - вільний - 14.99 ₴/⚡",
    "lat": 49.437834,
    "lng": 32.011457
  },
  {
    "name": "TOKA #2033 Epicentr Fast Charger (м. Житомир, Київське шосе, 4/2)",
    "portsCount": "4",
    "portsComment": "\\n        \\n         CHAdeMO - вільний - 16.99 ₴/⚡ CCS 2 - вільний - 16.99 ₴/⚡ Type 2 - вільний - 12.99 ₴/⚡ GB/T DC - вільний - 16.99 ₴/⚡",
    "lat": 50.270524,
    "lng": 28.700018
  },
  {
    "name": "TOKA #2025 Umanpivo Fast Charger (Умань, вул. Дерев'янка, 21)",
    "portsCount": "4",
    "portsComment": "\\n        \\n         CHAdeMO - вільний - 17.99 ₴/⚡ CCS 2 - вільний - 17.99 ₴/⚡ Type 2 - вільний - 13.99 ₴/⚡ GB/T DC - вільний - 17.99 ₴/⚡",
    "lat": 48.734218,
    "lng": 30.171839
  },
  {
    "name": "TOKA #1075 Epicentr (м. Львів, вул. Богдана Хмельницького, 188-А)",
    "portsCount": "3",
    "portsComment": "\\n        \\n         Type 2 Plug - вільний - 11.99 ₴/⚡ GB/T AC - вільний - 11.99 ₴/⚡ Type 1 - вільний - 11.99 ₴/⚡",
    "lat": 49.864276,
    "lng": 24.05367
  },
  {
    "name": "TOKA #1077 Epicentr (м. Львів, вул. Богдана Хмельницького, 188-А )",
    "portsCount": "3",
    "portsComment": "\\n        \\n         Type 2 Plug - вільний - 11.99 ₴/⚡ GB/T AC - вільний - 11.99 ₴/⚡ Type 1 - вільний - 11.99 ₴/⚡",
    "lat": 49.864165,
    "lng": 24.053589
  },
  {
    "name": "TOKA #2032 Epicentr Fast Charger (м. Львів, вул. Богдана Хмельницького, 188-А)",
    "portsCount": "4",
    "portsComment": "\\n        \\n         CHAdeMO - вільний - 15.99 ₴/⚡ CCS 2 - вільний - 15.99 ₴/⚡ Type 2 - вільний - 11.99 ₴/⚡ GB/T DC - вільний - 15.99 ₴/⚡",
    "lat": 49.864336,
    "lng": 24.053735
  },
  {
    "name": "TOKA #1078 Epicentr (м. Житомир, Київське шосе, 4/2)",
    "portsCount": "3",
    "portsComment": "\\n        \\n         Type 2 Plug - вільний - 12.99 ₴/⚡ Type 1 - вільний - 12.99 ₴/⚡ GB/T AC - вільний - 12.99 ₴/⚡",
    "lat": 50.270641,
    "lng": 28.700198
  },
  {
    "name": "TOKA #1079 Epicentr  (м. Житомир, Київське шосе, 4/2)",
    "portsCount": "3",
    "portsComment": "\\n        \\n         Type 2 Plug - вільний - 12.99 ₴/⚡ Type 1 - вільний - 12.99 ₴/⚡ GB/T AC - вільний - 12.99 ₴/⚡",
    "lat": 50.270732,
    "lng": 28.700325
  },
  {
    "name": "TOKA #665 MAXenergy (м. Київ вул. Машинобудівна, 44)",
    "portsCount": "2",
    "portsComment": "\\n        \\n         Type 2 Plug - вільний - 13.99 ₴/⚡ Type 2 Plug - вільний - 13.99 ₴/⚡",
    "lat": 50.449251,
    "lng": 30.425892
  },
  {
    "name": "TOKA #666 MAXenergy (м. Київ вул. Машинобудівна, 44)",
    "portsCount": "3",
    "portsComment": "\\n        \\n         Type 2 Plug - вільний - 13.99 ₴/⚡ Type 1 - вільний - 13.99 ₴/⚡ GB/T AC - вільний - 13.99 ₴/⚡",
    "lat": 50.449257,
    "lng": 30.425843
  },
  {
    "name": "TOKA #668 OKKO Gas Station (м. Чернівці, вул. Галицький шлях, 46-М)",
    "portsCount": "1",
    "portsComment": "\\n        \\n         Type 2/Type 1 - невідомий - 15.99 ₴/⚡",
    "lat": 48.320709,
    "lng": 25.907551
  },
  {
    "name": "TOKA #942 VIP MYYKA Fast Charger (вул. Ярославська, 7, Черкаси)",
    "portsCount": "4",
    "portsComment": "\\n        \\n         CHAdeMO - вільний - 15.49 ₴/⚡ CCS 2 - вільний - 15.49 ₴/⚡ Type 2 - вільний - 15.49 ₴/⚡ GB/T DC - вільний - 15.49 ₴/⚡",
    "lat": 49.437859,
    "lng": 32.011394
  },
  {
    "name": "TOKA #578 OKKO Gas Station Fast Charger (Уманський р-н, с/р Ладижинська, а/д Київ-Одеса 226 км+310 м (ліворуч))",
    "portsCount": "3",
    "portsComment": "\\n        \\n         CCS 2 - вільний - 16.99 ₴/⚡ CCS 2 - вільний - 16.99 ₴/⚡ Type 2 Plug - вільний - 12.99 ₴/⚡",
    "lat": 48.567828,
    "lng": 30.232392
  },
  {
    "name": "TOKA #572 OKKO Gas Station Fast Charger (Уманський р-н, с/р Фурманська, а/д Київ-Одеса, 226 км+700 м)",
    "portsCount": "3",
    "portsComment": "\\n        \\n         CCS 2 - вільний - 16.99 ₴/⚡ CCS 2 - вільний - 16.99 ₴/⚡ Type 2 Plug - вільний - 12.99 ₴/⚡",
    "lat": 48.565787,
    "lng": 30.231044
  },
  {
    "name": "TOKA #674 Artemida (Дарницький бульвар, 8-В м. Київ)",
    "portsCount": "3",
    "portsComment": "\\n        \\n         Type 2 Plug - вільний - 12.99 ₴/⚡ Type 1 - вільний - 12.99 ₴/⚡ GB/T AC - вільний - 12.99 ₴/⚡",
    "lat": 50.465029,
    "lng": 30.610026
  },
  {
    "name": "TOKA #675 Fayna Town (м. Київ, вул. Салютна, 2)",
    "portsCount": "3",
    "portsComment": "\\n        \\n         Type 2 - вільний - 13.99 ₴/⚡ Type 1 - вільний - 13.99 ₴/⚡ Type 1 - вільний - 13.99 ₴/⚡",
    "lat": 50.471864,
    "lng": 30.398146
  },
  {
    "name": "TOKA #676 ()",
    "portsCount": "3",
    "portsComment": "\\n        \\n         Type 2 Plug - вільний - 0.00 ₴/⚡ Type 2 Plug - вільний - 0.00 ₴/⚡ Type 1 - вільний - 0.00 ₴/⚡",
    "lat": 50.436064,
    "lng": 30.499814
  },
  {
    "name": "TOKA #677 Eco Status, готель Злата . (Львівська область, м. Пустомити вул. Грушевського 11)",
    "portsCount": "3",
    "portsComment": "\\n        \\n         Type 2 Plug - вільний - 15.99 ₴/⚡ GB/T AC - вільний - 15.99 ₴/⚡ Type 1 - вільний - 15.99 ₴/⚡",
    "lat": 49.715853,
    "lng": 23.904701
  },
  {
    "name": "TOKA #679 AZUZ-Kreator (м. Львів, вул. Стрийська 115)",
    "portsCount": "3",
    "portsComment": "\\n        \\n         Type 2 Plug - вільний - 13.99 ₴/⚡ Type 1 - зайнятий - 13.99 ₴/⚡ GB/T AC - вільний - 13.99 ₴/⚡",
    "lat": 49.785117,
    "lng": 24.024086
  },
  {
    "name": "TOKA #1144 Eco Status, ТЦ Роксолана. (м.Львів, Соборна площа, 14)",
    "portsCount": "2",
    "portsComment": "\\n        \\n         Type 1 - вільний - 15.99 ₴/⚡ GB/T AC - вільний - 15.99 ₴/⚡",
    "lat": 49.838778,
    "lng": 24.034388
  },
  {
    "name": "TOKA #10001 ELTIS TEST ()",
    "portsCount": "3",
    "portsComment": "\\n        \\n         CCS 2 - невідомий - 0.00 ₴/⚡ GB/T DC - невідомий - 0.00 ₴/⚡ CHAdeMO - невідомий - 0.00 ₴/⚡",
    "lat": 49.021019,
    "lng": 33.641397
  },
  {
    "name": "TOKA #2074 OKKO Gas Station Fast Charger (м. Київ, пр-т. Леся Курбаса, 2-Ж)",
    "portsCount": "4",
    "portsComment": "\\n        \\n         CHAdeMO - вільний - 15.99 ₴/⚡ CCS 2 - вільний - 15.99 ₴/⚡ Type 2 - вільний - 12.99 ₴/⚡ GB/T DC - вільний - 15.99 ₴/⚡",
    "lat": 50.431788,
    "lng": 30.392692
  },
  {
    "name": "TOKA #723 Dynamo Fast Charger (вул. Михайла Грушевського, 3, м. Київ)",
    "portsCount": "4",
    "portsComment": "\\n        \\n         CHAdeMO - вільний - 16.99 ₴/⚡ CCS 2 - вільний - 17.99 ₴/⚡ Type 2 - вільний - 13.99 ₴/⚡ GB/T DC - відключений - 17.99 ₴/⚡",
    "lat": 50.451201,
    "lng": 30.531616
  },
  {
    "name": "TOKA #701 Starosennaia-2 (м. Одеса, площа Старосінна 1-А)",
    "portsCount": "2",
    "portsComment": "\\n        \\n         Type 2 - вільний - 14.99 ₴/⚡ Type 1 - вільний - 14.99 ₴/⚡",
    "lat": 46.467105,
    "lng": 30.737205
  },
  {
    "name": "TOKA #684 KavaINN (провулок Сонячний, 1, м. Гостомель, Київська обл.)",
    "portsCount": "4",
    "portsComment": "\\n        \\n         CHAdeMO - невідомий - 15.99 ₴/⚡ CCS 2 - невідомий - 15.99 ₴/⚡ Type 2 - невідомий - 12.99 ₴/⚡ GB/T DC - невідомий - 15.99 ₴/⚡",
    "lat": 50.557101,
    "lng": 30.274457
  },
  {
    "name": "TOKA #702 Starosennaia (м. Одеса, площа Старосінна 1-А)",
    "portsCount": "2",
    "portsComment": "\\n        \\n         Type 2 Plug - вільний - 14.99 ₴/⚡ Type 1 - вільний - 14.99 ₴/⚡",
    "lat": 46.466819,
    "lng": 30.739277
  },
  {
    "name": "TOKA #508 Lypky - Lvivska (Lypky)",
    "portsCount": "4",
    "portsComment": "\\n        \\n         Type 2 Plug - вільний - 8.88 ₴/⚡ Type 2 Plug - вільний - 8.88 ₴/⚡ Type 2 Plug - зайнятий - 8.88 ₴/⚡ Type 2 Plug - зайнятий - 8.88 ₴/⚡",
    "lat": 50.454617,
    "lng": 30.37793
  },
  {
    "name": "TOKA #644 EVoltiq Malahit (вул. Богданівська, 7-Г, м. Київ)",
    "portsCount": "3",
    "portsComment": "\\n        \\n         Type 2 Plug - зайнятий - 12.99 ₴/⚡ GB/T AC - вільний - 12.99 ₴/⚡ Type 1 - зайнятий - 12.99 ₴/⚡",
    "lat": 50.435761,
    "lng": 30.478478
  },
  {
    "name": "TOKA #646 Eco Status, магазин Квіточка . (вул. Стрийська 103, м. Дрогобич, Львівська обл.)",
    "portsCount": "2",
    "portsComment": "\\n        \\n         Type 2 Plug - невідомий - 15.99 ₴/⚡ Type 1 - невідомий - 15.99 ₴/⚡",
    "lat": 49.351339,
    "lng": 23.521068
  },
  {
    "name": "TOKA #648 Eco Status, митний пост Дрогобич . (вул. Володимира Великого, 66/1, Дрогобич, Львівська обл.)",
    "portsCount": "1",
    "portsComment": "\\n        \\n         Type 2 Plug - вільний - 15.99 ₴/⚡",
    "lat": 49.356459,
    "lng": 23.535262
  },
  {
    "name": "TOKA #649 Eco Status, митний пост Дрогобич. (вул. Володимира Великого, 66/1, Дрогобич, Львівська обл.)",
    "portsCount": "1",
    "portsComment": "\\n        \\n         Type 1 - вільний - 15.99 ₴/⚡",
    "lat": 49.356448,
    "lng": 23.535171
  },
  {
    "name": "TOKA #650 Eco Status, готель ДіАнна . (вул. Степана Бандери, 12, Східниця, Львівська обл.)",
    "portsCount": "2",
    "portsComment": "\\n        \\n         Type 2 Plug - вільний - 15.99 ₴/⚡ Type 1 - вільний - 15.99 ₴/⚡",
    "lat": 49.233193,
    "lng": 23.339061
  },
  {
    "name": "TOKA #651 Eco Status (м. Львів вул Грузинська,25)",
    "portsCount": "1",
    "portsComment": "\\n        \\n         Type 2 Plug - вільний - 15.99 ₴/⚡",
    "lat": 49.832707,
    "lng": 23.96271
  },
  {
    "name": "TOKA #652 Eco Status, ринок Шувар№1. (вул. Хуторівка, 4Б, м. Львів)",
    "portsCount": "2",
    "portsComment": "\\n        \\n         Type 2 Plug - вільний - 15.99 ₴/⚡ Type 1 - вільний - 15.99 ₴/⚡",
    "lat": 49.798099,
    "lng": 24.034145
  },
  {
    "name": "TOKA #654 Eco Status, готель Галицька Корона .УВАГА,Перехідник на GBT та Type1 у адміністратора (вул. Степана Бандери, 86a, Давидів, Львівська обл.)",
    "portsCount": "1",
    "portsComment": "\\n        \\n         Type 2 Plug - вільний - 15.99 ₴/⚡",
    "lat": 49.765529,
    "lng": 24.109472
  },
  {
    "name": "TOKA #655 Eco Status, готель Древній Град.УВАГА,Перехідник GBT у адміністратора готелю. (7км. Траси Львів-Київ, Гамаліївка, Львівська обл.)",
    "portsCount": "2",
    "portsComment": "\\n        \\n         Type 2 Plug - вільний - 15.99 ₴/⚡ Type 1 - вільний - 15.99 ₴/⚡",
    "lat": 49.893672,
    "lng": 24.124507
  },
  {
    "name": "TOKA #662 Eco Status, Zolochiv castle (вул. В'ячеслава Чорновола, 5, Золочів, Львівська обл.)",
    "portsCount": "1",
    "portsComment": "\\n        \\n         Type 2 Plug - вільний - 14.99 ₴/⚡",
    "lat": 49.802797,
    "lng": 24.905707
  },
  {
    "name": "TOKA #509 Lypky (Lypky)",
    "portsCount": "1",
    "portsComment": "\\n        \\n         Type 2 Plug - зайнятий - 8.88 ₴/⚡",
    "lat": 50.41328,
    "lng": 30.547382
  },
  {
    "name": "TOKA #722 Lider billiards (вул. Семена Скляренка, 5, Київ)",
    "portsCount": "3",
    "portsComment": "\\n        \\n         Type 2 - вільний - 12.99 ₴/⚡ Type 1 - зайнятий - 12.99 ₴/⚡ Type 1 - вільний - 12.99 ₴/⚡",
    "lat": 50.493457,
    "lng": 30.468287
  },
  {
    "name": "TOKA #725 Dynamo (вул. Михайла Грушевського, 3, м. Київ)",
    "portsCount": "3",
    "portsComment": "\\n        \\n         GB/T AC - вільний - 13.99 ₴/⚡ Type 1 - вільний - 13.99 ₴/⚡ Type 2 Plug - вільний - 13.99 ₴/⚡",
    "lat": 50.450869,
    "lng": 30.533162
  },
  {
    "name": "TOKA #671  Eco Status, готель Світлиця,УВАГА,Перехідник на Type1 у адміністратора закладу. (вул. Дружби 173, с. Шегині, Львівська обл.)",
    "portsCount": "1",
    "portsComment": "\\n        \\n         Type 2 Plug - вільний - 15.99 ₴/⚡",
    "lat": 49.798629,
    "lng": 22.958263
  },
  {
    "name": "TOKA #697  Aqua Lux MOECO Energy (м. Ужгород, Підградська, 28)",
    "portsCount": "2",
    "portsComment": "\\n        \\n         Type 2 Plug - невідомий - 14.99 ₴/⚡ Type 1 - невідомий - 14.99 ₴/⚡",
    "lat": 48.621701,
    "lng": 22.308682
  },
  {
    "name": "TOKA #726 Eco Status, СТРЦ Спартак. (м. Львів вул. Гетьмана Мазепи 1Б)",
    "portsCount": "3",
    "portsComment": "\\n        \\n         GB/T AC - вільний - 15.99 ₴/⚡ Type 1 - вільний - 15.99 ₴/⚡ Type 2 Plug - зайнятий - 15.99 ₴/⚡",
    "lat": 49.870306,
    "lng": 24.02317
  },
  {
    "name": "TOKA #681  Eco Status, готель Dalim (вул. Шевченка, 261ж, Дуліби, Львівська обл.)",
    "portsCount": "2",
    "portsComment": "\\n        \\n         Type 2 Plug - вільний - 15.99 ₴/⚡ Type 1 - вільний - 15.99 ₴/⚡",
    "lat": 49.224062,
    "lng": 23.81178
  },
  {
    "name": "TOKA #685 Eco Status, готель Смерекова хата .УВАГА,Перехідники  на GBT та Type1  знаходяться у адміністратора готелю. (вул. Івана Франка, 57Б, Славське, Львівська обл.)",
    "portsCount": "1",
    "portsComment": "\\n        \\n         Type 2 Plug - вільний - 15.99 ₴/⚡",
    "lat": 48.859777,
    "lng": 23.462744
  },
  {
    "name": "TOKA #687 Eco Status, піцерія *Гранд*, Перехідник з Т2 на GBT знаходиться у адміністратора . (вул. Пушкіна, 15, Воловець, Закарпатська обл.)",
    "portsCount": "1",
    "portsComment": "\\n        \\n         Type 2 Plug - вільний - 15.99 ₴/⚡",
    "lat": 48.714725,
    "lng": 23.18962
  },
  {
    "name": "TOKA #688 Eco Status, готель Прага . (вул. Верховинська 38, м. Ужгород)",
    "portsCount": "2",
    "portsComment": "\\n        \\n         Type 2 Plug - вільний - 15.99 ₴/⚡ Type 1 - вільний - 15.99 ₴/⚡",
    "lat": 48.645657,
    "lng": 22.275027
  },
  {
    "name": "TOKA #729 Hotel De Luxe (Івано-Франківська обл., м.Городенка, вул. Шевченка, 44а)",
    "portsCount": "3",
    "portsComment": "\\n        \\n         GB/T AC - вільний - 12.99 ₴/⚡ Type 1 - вільний - 12.99 ₴/⚡ Type 2 - вільний - 12.99 ₴/⚡",
    "lat": 48.665464,
    "lng": 25.502775
  },
  {
    "name": "TOKA #730 KLO (Київська обл., с. Святопетрівське, вул. Зоряна, 20)",
    "portsCount": "4",
    "portsComment": "\\n        \\n         CCS 2 - вільний - 0.00 ₴/⚡ Type 2 Plug - вільний - 0.00 ₴/⚡ Type 1 - вільний - 0.00 ₴/⚡ GB/T DC - вільний - 0.00 ₴/⚡",
    "lat": 50.398412,
    "lng": 30.304813
  },
  {
    "name": "TOKA #731 WOG Fast Charger (вул. Берковецька, 6, Київ)",
    "portsCount": "4",
    "portsComment": "\\n        \\n         CCS 2/CCS 1 - вільний - 16.99 ₴/⚡ Type 2 Plug - вільний - 13.99 ₴/⚡ Type 1 - вільний - 13.99 ₴/⚡ GB/T DC - вільний - 16.99 ₴/⚡",
    "lat": 50.49934,
    "lng": 30.363833
  },
  {
    "name": "TOKA #689 Eco Status, готель Собінь .УВАГА,Перехідник на Type 1 , у адміністратора. (вул. Івана Франка, 3-А, Розлуч, Львівська обл.)",
    "portsCount": "1",
    "portsComment": "\\n        \\n         Type 2 Plug - вільний - 15.99 ₴/⚡",
    "lat": 49.243595,
    "lng": 22.977162
  },
  {
    "name": "TOKA #732 LuxWash (Київська обл., смт.Володарка , вул Зарічна 2А)",
    "portsCount": "2",
    "portsComment": "\\n        \\n         Type 2 Plug - вільний - 14.99 ₴/⚡ Type 1 - вільний - 14.99 ₴/⚡",
    "lat": 49.530332,
    "lng": 29.941852
  },
  {
    "name": "TOKA #691 Eco Status, Турійське Подвірʼя.УВАГА,Перехідник на Type 1,+GBT у адміністратора. (вул. Незалежності, 1, Блаженик, Волинська обл.)",
    "portsCount": "1",
    "portsComment": "\\n        \\n         Type 2 Plug - вільний - 15.99 ₴/⚡",
    "lat": 50.986776,
    "lng": 24.386374
  },
  {
    "name": "TOKA #733 BRSM Fast Charger (вул. Львівська, 218-А, Хуст, Закарпатська обл.)",
    "portsCount": "4",
    "portsComment": "\\n        \\n         CHAdeMO - вільний - 19.99 ₴/⚡ CCS 2 - вільний - 19.99 ₴/⚡ Type 2 - вільний - 14.99 ₴/⚡ GB/T DC - вільний - 19.99 ₴/⚡",
    "lat": 48.197819,
    "lng": 23.312805
  },
  {
    "name": "TOKA #724 Shpytsi Hotel&SPA  (вул. Горішків 348, с. Яблуниц, Івано-Франківська обл.)",
    "portsCount": "2",
    "portsComment": "\\n        \\n         Type 1 - вільний - 0.00 ₴/⚡ Type 2 Plug - вільний - 0.00 ₴/⚡",
    "lat": 48.311432,
    "lng": 24.442572
  },
  {
    "name": "TOKA #735 Lypove Fast Charger (Кіровоградська обл., с. Липове, вул. Центральна 8-а)",
    "portsCount": "4",
    "portsComment": "\\n        \\n         CHAdeMO - вільний - 16.00 ₴/⚡ CCS 2 - вільний - 17.00 ₴/⚡ Type 2 - вільний - 13.00 ₴/⚡ GB/T DC - вільний - 17.00 ₴/⚡",
    "lat": 48.457632,
    "lng": 32.192445
  },
  {
    "name": "TOKA #940 VIP MYYKA Fast Charger (вул. Ярославська, 7, Черкаси)",
    "portsCount": "4",
    "portsComment": "\\n        \\n         CHAdeMO - вільний - 15.49 ₴/⚡ CCS 2 - вільний - 15.49 ₴/⚡ Type 2 Plug - вільний - 15.49 ₴/⚡ GB/T DC - вільний - 15.49 ₴/⚡",
    "lat": 49.43784,
    "lng": 32.011433
  },
  {
    "name": "TOKA #737 Auto Plus Fast Charger (вул. Льотчиків, 42а, Кривий Ріг, Дніпропетровська обл.)",
    "portsCount": "4",
    "portsComment": "\\n        \\n         CHAdeMO - вільний - 14.99 ₴/⚡ CCS 2 - вільний - 14.99 ₴/⚡ Type 2 Plug - вільний - 12.99 ₴/⚡ GB/T DC - вільний - 14.99 ₴/⚡",
    "lat": 47.933501,
    "lng": 33.402833
  },
  {
    "name": "TOKA #738 EVoltiq Papirus (вул. Промислова, 1А, Білогородка, Київська обл.,)",
    "portsCount": "3",
    "portsComment": "\\n        \\n         CCS 2 - вільний - 16.99 ₴/⚡ GB/T DC - вільний - 16.99 ₴/⚡ CHAdeMO - вільний - 16.99 ₴/⚡",
    "lat": 50.390323,
    "lng": 30.286984
  },
  {
    "name": "TOKA #739 EVoltiq Art Mall (вул. Академіка Заболотного, 37, Київ)",
    "portsCount": "3",
    "portsComment": "\\n        \\n         CCS 2 - вільний - 16.99 ₴/⚡ GB/T DC - вільний - 16.99 ₴/⚡ CHAdeMO - вільний - 16.99 ₴/⚡",
    "lat": 50.342666,
    "lng": 30.542992
  },
  {
    "name": "ТОКА #745 Motel Chertur (Львівська обл., с. Явора вул. Широке 456)",
    "portsCount": "2",
    "portsComment": "\\n        \\n         Type 2 Plug - вільний - 15.79 ₴/⚡ GB/T AC - вільний - 15.79 ₴/⚡",
    "lat": 49.201736,
    "lng": 23.026551
  },
  {
    "name": "TOKA #740 Premium Club Hotel (Івано-Франківська обл. м.Яремче, вул. Сидора Ковпака 29-Б)",
    "portsCount": "3",
    "portsComment": "\\n        \\n         GB/T AC - вільний - 17.99 ₴/⚡ Type 1 - вільний - 17.99 ₴/⚡ Type 2 Plug - вільний - 17.99 ₴/⚡",
    "lat": 48.453314,
    "lng": 24.548183
  },