lat;lng;name;portsCount;portsComment
46.411294;30.727486;TOKA #11 Vuzovskii (м. Одеса, Люстдорфська дорога, 140/1);3;\n        \n         Type 1 - невідомий - 14.99 ₴/⚡ Type 1 - невідомий - 14.99 ₴/⚡ Type 1 - невідомий - 14.99 ₴/⚡
50.428354;30.541407;TOKA #16 KOGA (м. Київ, вул. Генерала Алмазова, 9);2;\n        \n         Type 1 - вільний - 12.99 ₴/⚡ Type 1 - вільний - 12.99 ₴/⚡
46.388825;30.710899;TOKA #28 Elefant [Nissan] (м. Одеса, вул. Академіка Вільямса, 89);1;\n        \n         Type 1 - невідомий - 14.99 ₴/⚡
46.38685;30.704973;TOKA #29 METRO (Одеська обл., Одеський р-н, с. Лиманка, просп. Гуляєва полковника, ж/м Дружний, буд.101-м);1;\n        \n         Type 2/Type 1 - невідомий - 13.99 ₴/⚡
50.47173;30.477528;TOKA #30 Promenada (м. Київ, вул. Овруцька, 18);1;\n        \n         Type 2/Type 1 - невідомий - 13.99 ₴/⚡
50.406421;30.535177;TOKA #31 ILTA [Peugeot] (м. Київ, Залізничне шосе, 6);1;\n        \n         Type 2 - вільний - 12.99 ₴/⚡
50.445769;30.4925;TOKA #38 Ukraina parking (м. Київ, пл. Перемоги, 3);3;\n        \n         Type 2 Plug - вільний - 14.99 ₴/⚡ Type 2 - вільний - 14.99 ₴/⚡ Type 1 - зайнятий - 14.99 ₴/⚡
50.425803;30.592954;TOKA #40 Parking (м. Київ, Дніпровська набережна, 7);3;\n        \n         Type 2 - вільний - 12.99 ₴/⚡ Type 2 - вільний - 12.99 ₴/⚡ Type 2 - вільний - 12.99 ₴/⚡
46.437937;30.769446;TOKA #45 KADORR restaurant (м. Одеса, Французький Бульвар, 66/3);3;\n        \n         Type 2 - вільний - 13.99 ₴/⚡ Type 1 - відключений - 13.99 ₴/⚡ Type 2 - вільний - 13.99 ₴/⚡
46.435505;30.758128;TOKA #72 KADORR City Mall (м. Одеса, вул. Генуезська, 24б);1;\n        \n         Type 2/Type 1 - вільний - 14.99 ₴/⚡
46.594379;30.803064;TOKA #75 Kopeika (м. Одеса, просп. Добровольського, 130);1;\n        \n         Type 2/Type 1 - невідомий - 14.99 ₴/⚡
50.47156;30.629973;TOKA #76 Bdzhilka (м.Київ, вул. Шолом-Алейхема, 10а);1;\n        \n         Type 2/Type 1 - вільний - 14.99 ₴/⚡
46.442486;30.714405;TOKA #83 Kopeika (м. Одеса, вул. Малиновського, 51);1;\n        \n         Type 2 - вільний - 14.99 ₴/⚡
50.431085;30.617644;TOKA #84 Gimnazia A+ (Київ, вул. Березнева, 17);1;\n        \n         Type 2/Type 1 - зайнятий - 12.99 ₴/⚡
50.446109;30.534903;TOKA #91 LYPKY (м. Київ, вул. Шовковична, 6/15);1;\n        \n         Type 2/Type 1 - невідомий - 0.00 ₴/⚡
50.429955;30.594386;TOKA #1122 UkrGazBank (м.Київ, вул. Івана Миколайчука, 1А);3;\n        \n         Type 1 - зайнятий - 14.99 ₴/⚡ Type 2 - вільний - 14.99 ₴/⚡ Type 1 - зайнятий - 14.99 ₴/⚡
48.168967;23.294843;TOKA #94 MOECO (м. Хуст, вул. Івана Франка, 39);3;\n        \n         Type 2 - вільний - 13.99 ₴/⚡ Type 1 - вільний - 13.99 ₴/⚡ Type 1 - вільний - 13.99 ₴/⚡
48.449735;22.725264;TOKA #99 Gavan (м. Мукачево, вул. Перемоги, 2Е);3;\n        \n         Type 2 - вільний - 14.00 ₴/⚡ Type 1 - відключений - 14.00 ₴/⚡ Type 1 - вільний - 14.00 ₴/⚡
50.439846;30.515469;ТОКА #2001 Credit Agricole (вул. Пушкінська 42/2 , м. Киев);2;\n        \n         Type 2 - вільний - 0.00 ₴/⚡ Type 2 - вільний - 0.00 ₴/⚡
50.441261;30.448225;TOKA #312 Campus (вул. Нижньоключова, 14,Київ, 02000);7;\n        \n         Type 2 - вільний - 0.00 ₴/⚡ Type 2 - вільний - 0.00 ₴/⚡ Type 2 - вільний - 0.00 ₴/⚡ Type 2 - зайнятий - 0.00 ₴/⚡ Type 2 - зайнятий - 0.00 ₴/⚡ Type 2 - вільний - 0.00 ₴/⚡ Type 2 - вільний - 0.00 ₴/⚡
48.607781;22.270322;TOKA #2058 MOECO Energy (м. Ужгород, вул. Героїв 101-ї бригади, 9);3;\n        \n         CHAdeMO - вільний - 15.99 ₴/⚡ CCS 2 - вільний - 15.99 ₴/⚡ Type 2 Plug - вільний - 14.99 ₴/⚡
50.459721;30.626887;TOKA #104 OKKO Gas Station (м. Київ, просп. Броварський, 20з);1;\n        \n         Type 2/Type 1 - вільний - 12.99 ₴/⚡
50.471444;30.356116;TOKA #110 OKKO Gas Station (м. Київ, пр-т Академіка Палладіна, 33);1;\n        \n         Type 2 - вільний - 12.99 ₴/⚡
50.490524;30.471537;TOKA #108 OKKO Gas Station (м. Київ, вул. Семена Скляренка, 4);1;\n        \n         Type 2/Type 1 - вільний - 12.99 ₴/⚡
49.786369;23.695364;TOKA #145 OKKO Gas Station (Городок, вул. Львівська, 320-Б);1;\n        \n         Type 2/Type 1 - вільний - 12.99 ₴/⚡
49.247759;23.856451;TOKA #147 OKKO Gas Station (Стрий, вул. Болехівська, 49);1;\n        \n         Type 2 - вільний - 12.99 ₴/⚡
49.924708;36.456487;TOKA #152 OKKO Gas Station (Мала Рогань, вул. Шосейна, 2);1;\n        \n         Type 2/Type 1 - невідомий - 12.99 ₴/⚡
48.665191;33.082186;TOKA #151 OKKO Gas Station (м. Олександрія, вул. Куйбишева, 95);1;\n        \n         Type 2/Type 1 - вільний - 12.99 ₴/⚡
48.307711;23.046004;TOKA #109 Universam Hosen (м. Іршава, вул. Білецька 51/1);3;\n        \n         Type 2 - вільний - 12.99 ₴/⚡ Type 1 - вільний - 12.99 ₴/⚡ Type 1 - вільний - 12.99 ₴/⚡
46.569557;30.798757;TOKA #112 KADORR (м. Одеса, вул. Марсельська, 35б);3;\n        \n         Type 2 - вільний - 14.99 ₴/⚡ Type 1 - вільний - 14.99 ₴/⚡ Type 1 - вільний - 14.99 ₴/⚡
47.967334;23.857919;TOKA #128 Fix-El Market TISA (с.Солотвино, вул. Спортивна, 1, Тячiвський район, Закарпатська обл.);2;\n        \n         Type 2 - невідомий - 12.99 ₴/⚡ Type 1 - невідомий - 12.99 ₴/⚡
50.449545;30.481475;TOKA #129 Ministry of Infrastructure (м. Київ, проспект Перемоги, 14);3;\n        \n         Type 2 - вільний - 14.99 ₴/⚡ Type 1 - вільний - 14.99 ₴/⚡ Type 2 Plug - вільний - 14.99 ₴/⚡
50.406685;30.609269;TOKA #216 RiverMall  floor 2 (м. Київ, вул. Дніпровська набережна, 12);1;\n        \n         Type 2/Type 1 - вільний - 12.99 ₴/⚡
46.450164;30.638567;TOKA #156 7-e NEBO (Смт. Авангард, Житловий масив 7е Небо, вул. Торгова, 17);3;\n        \n         Type 2 Plug - вільний - 12.99 ₴/⚡ Type 1 - зайнятий - 12.99 ₴/⚡ Type 1 - зайнятий - 12.99 ₴/⚡
50.405013;30.680027;TOKA #158 PROM (м. Київ, вул. Харківське шосе, 201/203);3;\n        \n         Type 2 - вільний - 12.99 ₴/⚡ Type 1 - вільний - 12.99 ₴/⚡ Type 1 - вільний - 12.99 ₴/⚡
48.626666;22.306158;TOKA #159 Clever Gym (м. Ужгород вул. Другетів, 73);2;\n        \n         Type 2 - невідомий - 13.99 ₴/⚡ Type 1 - невідомий - 13.99 ₴/⚡
48.421483;22.170205;TOKA #163 Solomon (вул. Європейська, буд. 3,с. Соломоново, Закарпатська обл.);2;\n        \n         Type 2 - вільний - 13.99 ₴/⚡ Type 1 - вільний - 13.99 ₴/⚡
47.952642;24.039803;ТОКА #169 Fix-El Lakomka (вулиця Грушевського, Луг, Закарпатська область, 90616);3;\n        \n         Type 2 - невідомий - 12.99 ₴/⚡ Type 1 - невідомий - 12.99 ₴/⚡ Type 1 - невідомий - 12.99 ₴/⚡
48.833131;23.067636;ТОКА #171  (Закарпатська обл., Воловецький р-н, с.Білосовиця, 45 (Київ - Чоп 708 км));2;\n        \n         Type 2 - вільний - 13.99 ₴/⚡ Type 1 - вільний - 13.99 ₴/⚡
48.576272;22.355011;TOKA #174 Zolota Gora (с.Барвінок, урочище «Золота гора», Ужгород, Закарпатська область, 89425);3;\n        \n         Type 2 - відключений - 12.99 ₴/⚡ Type 1 - вільний - 12.99 ₴/⚡ Type 1 - відключений - 12.99 ₴/⚡
48.429044;22.173886;TOKA #175 Europe (Соломоново, вул. Леніна, 89);2;\n        \n         Type 2 - невідомий - 12.99 ₴/⚡ Type 1 - невідомий - 12.99 ₴/⚡
50.431418;30.539659;TOKA #972 Caffe Pal  (м.Київ, вул.Немировича-Данченка, 1);1;\n        \n         Type 2 Plug - невідомий - 14.99 ₴/⚡
48.215763;22.653177;TOKA #181 Apartamenty Na Leva (вул. Суворова, 40, Берегове, Закарпатська область);2;\n        \n         Type 2 - вільний - 13.99 ₴/⚡ Type 1 - вільний - 13.99 ₴/⚡
50.488916;30.524554;TOKA #184 OKKO Gas Station (м. Київ, пр-т. Героїв Сталінграду, 1-А);1;\n        \n         Type 2/Type 1 - невідомий - 12.99 ₴/⚡
49.831684;23.997614;TOKA #193 FOOD GARAGE (м. Львів, вул. Героїв УПА, 72);2;\n        \n         Type 2 - вільний - 14.99 ₴/⚡ Type 2 - вільний - 14.99 ₴/⚡
48.346291;33.498564;TOKA #196 Gastronom/21 BuKet/Zaryadka (бульвар Свободи, 54, Жовті Води, Дніпропетровська область);3;\n        \n         Type 1 - вільний - 12.99 ₴/⚡ Type 2 - вільний - 12.99 ₴/⚡ Type 1 - вільний - 12.99 ₴/⚡
50.40663;30.609229;TOKA #215 RiverMall  floor 2 (м. Київ, вул. Дніпровська набережна, 12);1;\n        \n         Type 2/Type 1 - вільний - 12.99 ₴/⚡
50.406735;30.609169;TOKA #222 RiverMall  floor 4 (м. Київ, вул. Дніпровська набережна, 12);1;\n        \n         Type 2/Type 1 - вільний - 12.99 ₴/⚡
50.406521;30.609149;TOKA #213 RiverMall floor 2 (м. Київ, вул. Дніпровська набережна, 12);1;\n        \n         Type 2 - вільний - 12.99 ₴/⚡
50.406575;30.609189;TOKA #214 RiverMall floor 2 (м. Київ, вул. Дніпровська набережна, 12);1;\n        \n         Type 2 - вільний - 12.99 ₴/⚡
50.406571;30.609049;TOKA #219 RiverMall  floor 4 (м. Київ, вул. Дніпровська набережна, 12);1;\n        \n         Type 2 - вільний - 12.99 ₴/⚡
50.406625;30.609089;TOKA #220 RiverMall floor 4 (м. Київ, вул. Дніпровська набережна, 12);1;\n        \n         Type 2 - вільний - 12.99 ₴/⚡
50.406411;30.609069;TOKA #211 RiverMall floor 2 (м. Київ, вул. Дніпровська набережна, 12);1;\n        \n         Type 2 Plug - вільний - 12.99 ₴/⚡
50.406466;30.609109;TOKA #212 RiverMall floor 2 (м. Київ, вул. Дніпровська набережна, 12);1;\n        \n         Type 2 Plug - вільний - 12.99 ₴/⚡
50.406461;30.608969;TOKA #217 RiverMall floor 4 (м. Київ, вул. Дніпровська набережна, 12);1;\n        \n         Type 2 Plug - вільний - 12.99 ₴/⚡
50.406516;30.609009;TOKA #218 RiverMall floor 4 (м. Київ, вул. Дніпровська набережна, 12);1;\n        \n         Type 2 Plug - вільний - 12.99 ₴/⚡
50.40668;30.609129;TOKA #221 RiverMall floor 4 (м. Київ, вул. Дніпровська набережна, 12);1;\n        \n         Type 2 - вільний - 12.99 ₴/⚡
50.458159;30.460798;TOKA #199  Kyiv Zoo (вул. Зоологічна, 5, Київ, Україна, 02000);3;\n        \n         Type 1 - вільний - 12.99 ₴/⚡ Type 2 - вільний - 12.99 ₴/⚡ Type 1 - вільний - 12.99 ₴/⚡
50.458099;30.460984;TOKA #200 Kyiv Zoo (вулиця Зоологічна, 5, Київ, Україна, 02000);3;\n        \n         Type 1 - вільний - 12.99 ₴/⚡ Type 2 - вільний - 12.99 ₴/⚡ Type 1 - вільний - 12.99 ₴/⚡
46.486677;30.734288;TOKA #189 BRIK (м. Одеса. провулок Маяковського, 7);2;\n        \n         Type 2 - вільний - 12.99 ₴/⚡ Type 1 - вільний - 12.99 ₴/⚡
50.438292;30.353022;ТОКА #207 Schasliviy (вул. Оксамитова, 11 Петропавлівська Борщагівка Київська обл.);3;\n        \n         Type 2 - вільний - 12.99 ₴/⚡ Type 1 - зайнятий - 12.99 ₴/⚡ Type 1 - зайнятий - 12.99 ₴/⚡
50.458152;30.461059;TOKA #208 Kyiv Zoo (вул. Зоологічна, 5, Київ, Україна, 02000);3;\n        \n         Type 1 - вільний - 12.99 ₴/⚡ Type 2 - вільний - 12.99 ₴/⚡ Type 1 - вільний - 12.99 ₴/⚡
50.422823;30.504474;TOKA #210 Horizon Park (м. Київ, вул. Миколи Амосова, 12);2;\n        \n         Type 2 - невідомий - 12.99 ₴/⚡ Type 1 - невідомий - 12.99 ₴/⚡
48.622343;24.583454;TOKA #223 OKKO Gas Station By GreenLife (вул.Вокзальна, 8, Надвірна, Івано-Франківська область);2;\n        \n         Type 2 - вільний - 15.99 ₴/⚡ Type 1 - відключений - 15.99 ₴/⚡
50.421135;30.427617;TOKA #230 OCTA (м. Київ, вул. Миколи Шепелєва, 2);3;\n        \n         Type 1 - вільний - 12.99 ₴/⚡ Type 1 - вільний - 12.99 ₴/⚡ Type 2 Plug - вільний - 12.99 ₴/⚡
50.431031;30.393184;TOKA #1176 Kurbasa (м. Київ, просп. Леся Курбаса, 1-Б);1;\n        \n         Type 2/Type 1 - вільний - 12.99 ₴/⚡
50.449053;30.488929;FASTER #256 Zolotoustivska (м. Київ, вул. Золотоустівська, 11);3;\n        \n         Type 2 - вільний - 12.99 ₴/⚡ Type 1 - зайнятий - 12.99 ₴/⚡ Type 1 - вільний - 12.99 ₴/⚡
48.510156;32.245764;TOKA #242 Motorkar Kropyvnytskyi (вул. Вокзальна, 60-А, Кропивницький);2;\n        \n         Type 2 - вільний - 12.00 ₴/⚡ Type 2/Type 1 - вільний - 12.99 ₴/⚡
50.066362;29.913569;TOKA #244 IoftBurger Fastiv (м. Фастів, вул. Гетьманська, 1);2;\n        \n         Type 2 - вільний - 14.49 ₴/⚡ Type 1 - вільний - 14.49 ₴/⚡
50.458216;30.460832;TOKA #247 Kyiv Zoo (вул. Зоологічна, 5, Київ, 02000);3;\n        \n         Type 1 - вільний - 12.99 ₴/⚡ Type 2 - вільний - 12.99 ₴/⚡ Type 1 - вільний - 12.99 ₴/⚡
50.458181;30.460992;TOKA #248 Kyiv Zoo (вул. Зоологічна, 5, Київ, 02000);3;\n        \n         Type 1 - вільний - 12.99 ₴/⚡ Type 2 - вільний - 12.99 ₴/⚡ Type 1 - вільний - 12.99 ₴/⚡
49.798016;24.065418;TOKA #1183 AZUZ-Kolisna (м. Львів, вул. Колісна, 39);3;\n        \n         Type 2 - зайнятий - 14.99 ₴/⚡ Type 1 - вільний - 14.99 ₴/⚡ Type 1 - вільний - 14.99 ₴/⚡
49.810814;24.03213;TOKA #176 AZUZ-KVITKA (м. Львів, вул. Професора Буйка, 27);3;\n        \n         Type 2 Plug - зайнятий - 14.99 ₴/⚡ Type 2 - вільний - 14.99 ₴/⚡ Type 1 - відключений - 14.99 ₴/⚡
49.807748;24.071109;TOKA #168 AZUZ-HYGGE (м.Львів, вул. Пасічна, 148);3;\n        \n         Type 2 - невідомий - 14.99 ₴/⚡ Type 1 - невідомий - 14.99 ₴/⚡ Type 1 - невідомий - 14.99 ₴/⚡
50.426224;30.505021;TOKA #252 Protasov business park [доступ обмежено] (вул.Миколи Грінченка, 2/1,  Київ);1;\n        \n         Type 2 - вільний - 12.99 ₴/⚡
50.424254;30.507158;TOKA #253 Protasov business park [доступ обмежено] (вул.Миколи Грінченка, 2/1, Київ);2;\n        \n         Type 2 - вільний - 12.99 ₴/⚡ Type 2 - вільний - 12.99 ₴/⚡
46.481941;30.745414;TOKA #254 MTB BANK (Польський узвіз, 11, Одеса);2;\n        \n         Type 2 - вільний - 0.00 ₴/⚡ Type 2 - вільний - 0.00 ₴/⚡
50.448577;30.632715;TOKA #66 Banya (м. Київ, вул. Івана Сергієнка, 16);3;\n        \n         Type 2 - зайнятий - 13.99 ₴/⚡ Type 1 - вільний - 13.99 ₴/⚡ Type 1 - вільний - 13.99 ₴/⚡
50.458054;30.461093;TOKA #259 Kyiv Zoo (вул.Зоологічна, 5, Київ, Україна, 02000);3;\n        \n         Type 1 - вільний - 12.99 ₴/⚡ Type 2 - вільний - 12.99 ₴/⚡ Type 1 - вільний - 12.99 ₴/⚡
48.250398;22.619133;TOKA #270 Helikon (вул.Шевченка, 45, Яноші, Закарпатська область);2;\n        \n         Type 2 - вільний - 16.00 ₴/⚡ Type 1 - вільний - 16.00 ₴/⚡
50.458103;30.461185;TOKA #271 Kyiv Zoo (вул.Зоологічна, 5, Київ, Україна, 02000);3;\n        \n         Type 1 - вільний - 12.99 ₴/⚡ Type 2 - вільний - 12.99 ₴/⚡ Type 1 - вільний - 12.99 ₴/⚡
51.316937;26.620922;TOKA #273 OKKO Gas Station Fast Charger (м. Сарни, вул. Варшавська, 4-Б);4;\n        \n         CHAdeMO - вільний - 15.99 ₴/⚡ CCS 2/CCS 1 - вільний - 15.99 ₴/⚡ Type 2 Plug - вільний - 12.99 ₴/⚡ Type 1 - вільний - 12.99 ₴/⚡
48.801996;23.445757;TOKA #283 Vezha vedmezha (вул. Опришків, 1, с. Волосянка, Львівська область);3;\n        \n         Type 1 - вільний - 12.99 ₴/⚡ Type 2 - вільний - 12.99 ₴/⚡ Type 1 - вільний - 12.99 ₴/⚡
50.448196;30.295986;TOKA #284 USCRF (проспект Перемоги, 151, Київ);3;\n        \n         Type 2 - вільний - 15.16 ₴/⚡ Type 1 - вільний - 15.16 ₴/⚡ Type 1 - вільний - 15.16 ₴/⚡
48.929804;24.707311;TOKA #1150 Panorama Plaza By GreenLife (Північний бульвар, 2А, Івано-Франківськ, Івано-Франківська обл);2;\n        \n         Type 2 - вільний - 15.99 ₴/⚡ Type 1 - вільний - 15.99 ₴/⚡
50.413481;30.525958;FASTER #276 Private station (вул. Велика Васильківська, 143/2, Київ,  03150);2;\n        \n         Type 2 - зайнятий - 12.99 ₴/⚡ Type 1 - вільний - 12.99 ₴/⚡
48.939957;24.738379;TOKA #293 OKKO Gas Station By GreenLife (вул.Вовчинецька, 225д, Івано-фоанківськ);2;\n        \n         Type 2 - відключений - 15.99 ₴/⚡ Type 1 - вільний - 15.99 ₴/⚡
46.413593;30.725005;TOKA #295 Tiras (м. Одеса, вул. Академіка Королева, 5/4);1;\n        \n         Type 2 - невідомий - 100.00 ₴/⚡
48.915555;24.72942;TOKA #296 OKKO Gas Station By GreenLife (вул. Хриплинська, 9, Івано-Франківськ);2;\n        \n         Type 2 - вільний - 15.99 ₴/⚡ Type 1 - вільний - 15.99 ₴/⚡
50.241318;30.571293;TOKA #299 Baku Boulevard (Київська обл., с. Підгірці, Новообухівська траса 28 км);2;\n        \n         Type 2 - вільний - 13.99 ₴/⚡ Type 1 - вільний - 13.99 ₴/⚡
50.394945;30.602596;FASTER #300 Zarichna (м. Київ, вул. Зарічна, 16);3;\n        \n         Type 2 - вільний - 13.49 ₴/⚡ Type 1 - зайнятий - 13.49 ₴/⚡ Type 1 - зайнятий - 13.49 ₴/⚡
48.959796;24.704331;TOKA #305 OKKO Gas Station Fast Charger (вул. Галицька, 23А, Угринів, Івано-Франківська обл.);3;\n        \n         Type 2 - відключений - 15.99 ₴/⚡ CHAdeMO - вільний - 16.99 ₴/⚡ CCS 2 - вільний - 16.99 ₴/⚡
50.485839;30.519035;TOKA #1014 Blockbuster Fast Charger (м. Київ, пр-т. Степана Бандери, 34-В);4;\n        \n         CHAdeMO - вільний - 15.99 ₴/⚡ CCS 2 - вільний - 15.99 ₴/⚡ Type 2 Plug - вільний - 12.99 ₴/⚡ Type 1 - вільний - 12.99 ₴/⚡
50.469565;30.524394;FASTER #303 Khutorok restaurant (м. Київ. Набережно-Хрещатицька, 10-А);3;\n        \n         Type 2 - вільний - 13.99 ₴/⚡ Type 1 - вільний - 13.99 ₴/⚡ Type 1 - вільний - 13.99 ₴/⚡
46.396301;30.708442;TOKA #307 Marshal (м. Одеса, проспект Академіка Глушка, 29-А);1;\n        \n         Type 2/Type 1 - невідомий - 14.99 ₴/⚡
49.790488;30.115372;TOKA #308 Margarita (вул. Гагаріна, 35/33, Біла Церква);2;\n        \n         Type 2 - зайнятий - 12.99 ₴/⚡ Type 1 - вільний - 12.99 ₴/⚡
50.514207;30.498809;FASTER #309 DREAM berry (м. Київ, Оболонський просп., 21-б);3;\n        \n         Type 2 - вільний - 15.99 ₴/⚡ Type 1 - зайнятий - 15.99 ₴/⚡ Type 1 - вільний - 15.99 ₴/⚡
50.514213;30.498399;FASTER #315 DREAM berry (м. Київ, Оболонський просп., 21-б);3;\n        \n         Type 2 - вільний - 15.99 ₴/⚡ Type 1 - вільний - 15.99 ₴/⚡ Type 1 - вільний - 15.99 ₴/⚡
50.438301;30.409067;TOKA #23 UkrGazBank (м. Київ, бульв. Вацлава Гавела, 16А);1;\n        \n         Type 2 - вільний - 14.99 ₴/⚡
50.242165;30.276244;TOKA #324 Yupiter 9 Agroservices (вул. Сулими, 11, Глеваха, Київська обл., Украина, 08630);1;\n        \n         Type 2/Type 1 - невідомий - 0.00 ₴/⚡
48.798432;30.257414;TOKA #325 RDO (вул. Садова 169, м. Умань);4;\n        \n         CHAdeMO - вільний - 0.00 ₴/⚡ CCS 2 - вільний - 0.00 ₴/⚡ Type 2 - вільний - 0.00 ₴/⚡ Type 1 - вільний - 0.00 ₴/⚡
49.955631;23.124118;TOKA #327 OKKO Gas Station (Яворівський р-н, смт. Краковець, вул. Вербицького, 68);2;\n        \n         Type 2 - вільний - 12.99 ₴/⚡ Type 2 - вільний - 12.99 ₴/⚡
50.437878;30.528404;TOKA #328 Barvy Fast Charger (м. Київ, вул. Мечникова, 3);3;\n        \n         Type 2 Plug - невідомий - 12.99 ₴/⚡ CCS 2 - невідомий - 15.99 ₴/⚡ CHAdeMO - невідомий - 15.99 ₴/⚡
50.432983;30.553478;TOKA #333 Goethe-Institut (вул. Лаврська, 16, літера Л, м. Київ);3;\n        \n         Type 2 - вільний - 0.00 ₴/⚡ Schuko - вільний - 0.00 ₴/⚡ Type 1 - вільний - 0.00 ₴/⚡
50.471581;30.356124;TOKA #336 OKKO Gas Station Fast Charger (м. Київ, пр-т Академіка Палладіна, 33);3;\n        \n         Type 2 - вільний - 12.99 ₴/⚡ CHAdeMO - вільний - 15.99 ₴/⚡ CCS 2 - вільний - 15.99 ₴/⚡
50.6449;26.200685;TOKA #337 OKKO Gas Station Fast Charger (Рівненський р-н, с/рада Шпанівська, комплекс будівель та споруд №1);3;\n        \n         Type 2 - зайнятий - 12.99 ₴/⚡ CHAdeMO - вільний - 15.99 ₴/⚡ CCS 2 - вільний - 15.99 ₴/⚡
50.482644;30.492162;TOKA #342 NISSAN AutoAlliance (м. Київ, вул. Корабельна, 4-А);3;\n        \n         Type 1 - вільний - 12.99 ₴/⚡ Type 2 - вільний - 12.99 ₴/⚡ Type 2 Plug - вільний - 12.99 ₴/⚡
50.492387;30.494096;TOKA #343 Luxoptika (проспект Степана Бандери, 21Б, Київ);3;\n        \n         Type 2 Plug - вільний - 100.00 ₴/⚡ Type 2 Plug - вільний - 100.00 ₴/⚡ Type 2 - вільний - 100.00 ₴/⚡
50.446178;30.544782;TOKA #389 Summit (м. Київ, вул. Михайла Грушевського, 9-Б);3;\n        \n         Type 2 Plug - вільний - 0.00 ₴/⚡ Type 2 Plug - вільний - 0.00 ₴/⚡ Type 2 Plug - вільний - 0.00 ₴/⚡
50.446171;30.544782;TOKA #388 Summit (м. Київ, вул. Михайла Грушевського, 9-Б);3;\n        \n         Type 2 Plug - вільний - 0.00 ₴/⚡ Type 2 Plug - зайнятий - 0.00 ₴/⚡ Type 2 Plug - зайнятий - 0.00 ₴/⚡
50.446087;30.544819;TOKA #387 Summit (м. Київ, вул. Михайла Грушевського, 9-Б);2;\n        \n         Type 2 Plug - вільний - 12.99 ₴/⚡ Type 1 - вільний - 12.99 ₴/⚡
50.431528;30.485401;FASTER #347 Kudryashova (м. Київ, вул. Кудряшова, 16);3;\n        \n         Type 2 - вільний - 12.99 ₴/⚡ Type 1 - зайнятий - 12.99 ₴/⚡ Type 1 - зайнятий - 12.99 ₴/⚡
50.4581;30.458663;TOKA #348 Oberig clinic (м. Київ, вул. Зоологічна, 3-Г);2;\n        \n         Type 2 - вільний - 12.99 ₴/⚡ Type 2 - вільний - 12.99 ₴/⚡
50.433704;30.506559;TOKA #349 Platforma Korolenkivska (м. Київ, вул. Короленківська, буд. 3);3;\n        \n         Type 2 - вільний - 12.99 ₴/⚡ Type 2 - вільний - 12.99 ₴/⚡ Type 2 - вільний - 12.99 ₴/⚡
50.433704;30.506559;TOKA #350 Platforma Korolenkivska (м. Київ, вул. Короленківська, буд. 3);3;\n        \n         Type 2 - вільний - 12.99 ₴/⚡ Type 2 - вільний - 12.99 ₴/⚡ Type 2 - вільний - 12.99 ₴/⚡
50.412775;30.526451;FASTER #354 Bon Bazar (м. Київ, вул. Велика Васильківська, 143/2);3;\n        \n         Type 2 - вільний - 12.99 ₴/⚡ Type 1 - вільний - 12.99 ₴/⚡ Type 1 - вільний - 12.99 ₴/⚡
50.514725;30.492247;FASTER #355 EKO-market (м. Київ, вул. Зої Гайдай, 2);3;\n        \n         Type 2 - вільний - 12.99 ₴/⚡ Type 1 - вільний - 12.99 ₴/⚡ Type 1 - вільний - 12.99 ₴/⚡
50.481687;30.49462;TOKA #359 FARMAK (вул. Чорноморська,  буд. 4 , м. Київ);1;\n        \n         Type 2 Plug - вільний - 0.00 ₴/⚡
48.589583;22.974658;TOKA #361 Kryshtaleve Dzherelo (Кришталеве джерело, с. Солочин, Закарпатська обл.);3;\n        \n         Type 1 - вільний - 12.99 ₴/⚡ Type 2 - вільний - 12.99 ₴/⚡ Type 2 Plug - вільний - 12.99 ₴/⚡
49.737377;31.505335;TOKA #362 Knyazha Hora (м. Канів, вул. Дніпровська ,1);2;\n        \n         Type 2 Plug - вільний - 12.99 ₴/⚡ Type 1 - вільний - 12.99 ₴/⚡
49.808845;24.061834;TOKA #363 Viking (м. Львів, вул. Зелена, буд. 151);2;\n        \n         Type 1 - вільний - 12.99 ₴/⚡ Type 2 - вільний - 12.99 ₴/⚡
49.808797;24.061729;TOKA #364 Viking (м. Львів, вул. Зелена, буд. 151);2;\n        \n         Type 1 - вільний - 12.99 ₴/⚡ Type 2 - вільний - 12.99 ₴/⚡
49.808825;24.061834;TOKA #365 Viking (м. Львів, вул. Зелена, буд. 151);2;\n        \n         Type 1 - невідомий - 12.99 ₴/⚡ Type 2 - невідомий - 12.99 ₴/⚡
49.808909;24.061851;TOKA #366 Viking (м. Львів, вул. Зелена, буд. 151);2;\n        \n         Type 1 - невідомий - 12.99 ₴/⚡ Type 2 - невідомий - 12.99 ₴/⚡
50.529455;30.601637;TOKA #985 EKO-market (м. Київ, вул. Радунська 40);3;\n        \n         Type 2 - вільний - 12.99 ₴/⚡ Type 1 - вільний - 12.99 ₴/⚡ Type 1 - вільний - 12.99 ₴/⚡
50.44227;30.633238;FASTER #369 Prague  (м Київ, вул. Володимира Сосюри, ​​6);3;\n        \n         Type 2 - вільний - 12.99 ₴/⚡ Type 1 - вільний - 12.99 ₴/⚡ Type 1 - вільний - 12.99 ₴/⚡
50.495975;30.567831;TOKA #971 OKKO Gas Station Fast Charger (м. Київ, просп. Романа Шухевича, 5);2;\n        \n         CCS 2 - невідомий - 15.99 ₴/⚡ CHAdeMO - невідомий - 15.99 ₴/⚡
50.510883;30.49187;FASTER #371 EKO-market (м Київ, вул. Маршала Тимошенко, 13/1);3;\n        \n         Type 2 - вільний - 12.99 ₴/⚡ Type 1 - вільний - 12.99 ₴/⚡ Type 1 - вільний - 12.99 ₴/⚡
50.456886;30.52154;TOKA #372 MZS (м. Київ, Михайлівська площа, 1);2;\n        \n         Type 2 - вільний - 0.00 ₴/⚡ Type 1 - вільний - 0.00 ₴/⚡
48.059008;23.347366;TOKA #373 Hotel Apartel (с. Шаян, вул. Центральна, 11);2;\n        \n         Type 2 Plug - невідомий - 12.99 ₴/⚡ Type 1 - невідомий - 12.99 ₴/⚡
50.479516;30.446068;FASTER #374 EKO-market (м. Київ, вул. Ольжича, 14);3;\n        \n         Type 2 - вільний - 12.99 ₴/⚡ Type 1 - вільний - 12.99 ₴/⚡ Type 1 - вільний - 12.99 ₴/⚡
50.502891;30.591908;TOKA #986 EKO-market (м. Київ, вул. Маяковського, 17);3;\n        \n         Type 2 - вільний - 12.99 ₴/⚡ Type 1 - зайнятий - 12.99 ₴/⚡ Type 1 - вільний - 12.99 ₴/⚡
50.456851;30.521548;TOKA #376 MZS (м. Київ, Михайлівська площа, 1);2;\n        \n         Type 2 - зайнятий - 0.00 ₴/⚡ Type 1 - вільний - 0.00 ₴/⚡
46.955192;32.024981;TOKA #378 Electrim-2000 (м. Миколаїв, вул. 7-а Слобідська, 70/8);1;\n        \n         Type 2 - вільний - 13.99 ₴/⚡
50.445463;30.543782;TOKA #380 Summit (м. Київ, вул. Михайла Грушевського, 9-А);3;\n        \n         Type 2 Plug - вільний - 0.00 ₴/⚡ Type 2 Plug - вільний - 0.00 ₴/⚡ Type 2 Plug - вільний - 0.00 ₴/⚡
50.406227;30.535417;TOKA #382 Ilta (м. Київ, Залізничне шосе, 6);3;\n        \n         Type 2 Plug - невідомий - 0.00 ₴/⚡ Type 2 Plug - невідомий - 0.00 ₴/⚡ Type 1 - невідомий - 0.00 ₴/⚡
50.445428;30.543857;TOKA #384  (м. Київ, вул. Михайла Грушевського, 9-А);3;\n        \n         Type 2 Plug - вільний - 12.99 ₴/⚡ Type 2 Plug - вільний - 12.99 ₴/⚡ Type 2 Plug - вільний - 12.99 ₴/⚡
50.222898;30.646262;TOKA #386 Queen Country Club (Обухівське шосе, 55, смт. Козин, Київська обл.);2;\n        \n         Type 2 Plug - вільний - 12.99 ₴/⚡ Type 1 - вільний - 12.99 ₴/⚡
48.625031;22.276499;TOKA #392 Maximus (м. Ужгород, вул. Гленца 1);3;\n        \n         Type 1 - вільний - 12.99 ₴/⚡ Type 2 Plug - вільний - 12.99 ₴/⚡ Type 1 - вільний - 12.99 ₴/⚡
46.437123;30.761579;TOKA #393 Elegiya Park (м. Одеса, пров. Курортний, 1);2;\n        \n         Type 2 - вільний - 12.99 ₴/⚡ Type 2 - вільний - 12.99 ₴/⚡
50.575197;30.541189;TOKA #394 Private station ();1;\n        \n         Type 2 - невідомий - 100.00 ₴/⚡
50.427573;30.675808;TOKA #395 Elmiz Fast Charger (м. Київ, вул. Бориспільська, 9);2;\n        \n         CHAdeMO - невідомий - 13.99 ₴/⚡ Type 2 - невідомий - 12.99 ₴/⚡
50.42464;30.52121;TOKA #477 Predslavynska 25 (м. Київ, вул. Предславинська, 25);1;\n        \n         Type 2/Type 1 - вільний - 13.99 ₴/⚡
50.42749;30.675812;TOKA #402 Elmiz (м. Київ, вул. Бориспільська, 9);2;\n        \n         Type 2 - вільний - 12.99 ₴/⚡ Type 1 - вільний - 12.99 ₴/⚡
50.457345;30.650538;FASTER #403 DA! Apartment  (м. Київ, вул Червоноткацька 93);3;\n        \n         Type 2 - вільний - 13.99 ₴/⚡ Type 1 - вільний - 13.99 ₴/⚡ Type 1 - вільний - 13.99 ₴/⚡
48.442089;35.013034;TOKA #405 Chayka (м. Дніпро, вул. Нахімова, 53);2;\n        \n         Type 2 Plug - вільний - 10.99 ₴/⚡ Type 1 - вільний - 10.99 ₴/⚡
50.445212;30.504936;TOKA #406 Hilton (м. Київ, вул. Тараса Шевченка, 30);2;\n        \n         Type 2 Plug - вільний - 14.99 ₴/⚡ Type 1 - вільний - 14.99 ₴/⚡
50.394941;30.6012;FASTER #407 Zarichna (м. Київ, вул. Зарічна, 1);3;\n        \n         Type 2 - вільний - 12.99 ₴/⚡ Type 1 - зайнятий - 12.99 ₴/⚡ Type 1 - зайнятий - 12.99 ₴/⚡
50.49048;30.467652;FASTER #408 Kurenivska (вул. Куренівська 5/7, м. Київ);3;\n        \n         Type 2 - вільний - 13.99 ₴/⚡ Type 1 - вільний - 13.99 ₴/⚡ Type 1 - вільний - 13.99 ₴/⚡
49.074759;33.40594;TOKA #2008 SEM UKRAINA Fast Charger (Полтавська обл., м. Кременчук, вул. Небесної Сотні, 66-Г);4;\n        \n         CHAdeMO - вільний - 14.50 ₴/⚡ CCS 2/CCS 1 - вільний - 14.50 ₴/⚡ Type 2 Plug - вільний - 13.99 ₴/⚡ Type 1 - вільний - 13.99 ₴/⚡
48.449915;35.07467;TOKA #417 Volkswagen Autocenter-Ukraine (м. Дніпро, вул. Набережна Перемоги, 22);3;\n        \n         Type 2 Plug - вільний - 12.99 ₴/⚡ Type 2 - вільний - 12.99 ₴/⚡ Type 2 Plug - вільний - 12.99 ₴/⚡
50.433697;30.41426;TOKA #418 ISIDA (м. Київ, вул. Вацлава Гавела, 65);2;\n        \n         Type 2 Plug - вільний - 12.99 ₴/⚡ Type 1 - вільний - 12.99 ₴/⚡
50.566342;30.197476;TOKA #420 Private station (м. Буча, вул.  Богдана Ступки, 43a);1;\n        \n         GB/T AC - невідомий - 0.00 ₴/⚡
50.40871;30.380527;ТОКА #1171 Porsche Inter Auto Ukraine (Київська обл., с. Софіївська Борщагівка, вул..Вишнева, 1 А);3;\n        \n         CCS 2 - вільний - 15.99 ₴/⚡ CCS 2 - вільний - 15.99 ₴/⚡ Type 2 - вільний - 12.99 ₴/⚡
48.401275;35.037803;TOKA #427 Hyundai (м. Дніпро, Запорізьке шосе,  59);2;\n        \n         Type 2 Plug - вільний - 12.99 ₴/⚡ Type 1 - вільний - 12.99 ₴/⚡
49.20871;23.253036;ТОКА #430 Osonnya (с. Коротище, вул.. Івана Франка, буд. 42/А);2;\n        \n         Type 2 - невідомий - 12.99 ₴/⚡ Type 1 - невідомий - 12.99 ₴/⚡
49.208738;23.252993;ТОКА #431 Osonnya (с. Коротище, вул.. Івана Франка, буд. 42/А);3;\n        \n         Type 1 - вільний - 12.99 ₴/⚡ Type 1 - вільний - 12.99 ₴/⚡ Type 1 - вільний - 12.99 ₴/⚡
50.358227;28.625517;TOKA #432 Park-Hotel Chudodievo (с. Вишпіль, вул. Лісова, буд. 47);2;\n        \n         Type 2 Plug - вільний - 15.99 ₴/⚡ Type 1 - вільний - 15.99 ₴/⚡
49.817904;24.135612;TOKA #433 Galaktika (м. Винники вул. Миколайчука, 1);3;\n        \n         Type 1 - вільний - 12.99 ₴/⚡ Type 1 - вільний - 12.99 ₴/⚡ Type 1 - вільний - 12.99 ₴/⚡
49.817814;24.136024;TOKA #434 Galaktika (м. Винники вул. Миколайчука, 1);3;\n        \n         Type 1 - вільний - 12.99 ₴/⚡ Type 1 - вільний - 12.99 ₴/⚡ Type 1 - вільний - 12.99 ₴/⚡
48.363972;24.418291;TOKA #1045 Hotel Twins By GreenLife (ділянка Щівки, Поляниця);2;\n        \n         Type 2 Plug - зайнятий - 15.99 ₴/⚡ GB/T AC - вільний - 15.99 ₴/⚡
50.351812;30.49404;TOKA #1032 MHP (м. Київ, вул. Академіка Заболотного, 158);2;\n        \n         Type 2 - вільний - 8.99 ₴/⚡ Type 2 Plug - вільний - 8.99 ₴/⚡
50.400565;30.652699;TOKA #1001 Clever Fast Charger (м. Київ, пр-т. Бажана, 40);4;\n        \n         CHAdeMO - вільний - 15.99 ₴/⚡ CCS 2 - вільний - 15.99 ₴/⚡ Type 2 Plug - вільний - 12.99 ₴/⚡ Type 1 - вільний - 12.99 ₴/⚡
48.164667;23.297085;TOKA #444 Hotel Fokus (м. Хуст, вул. Івана Франка, 69);2;\n        \n         Type 2 - вільний - 13.99 ₴/⚡ Type 2 - вільний - 13.99 ₴/⚡
50.411295;30.625628;TOKA #1002 NOVUS Fast Charger (м. Київ, пр-т. Петра Григоренка, 18);4;\n        \n         CHAdeMO - вільний - 15.99 ₴/⚡ CCS 2 - вільний - 15.99 ₴/⚡ Type 2 Plug - вільний - 14.99 ₴/⚡ Type 1 - вільний - 14.99 ₴/⚡
48.539134;25.00459;TOKA #447 OKKO Gas Station (вул. Карпатська, 142-Б, Коломия, Івано-Франківська обл.);2;\n        \n         Type 2 - вільний - 15.99 ₴/⚡ Type 1 - вільний - 15.99 ₴/⚡
50.370401;30.445033;TOKA #449 Respublika 2 (м. Київ, бульвар Тадея Рильського, 4);3;\n        \n         Type 2 Plug - невідомий - 12.99 ₴/⚡ Type 2 - невідомий - 12.99 ₴/⚡ Type 1 - невідомий - 12.99 ₴/⚡
49.8126;24.1136;TOKA #466 EMILY RESORT (вулиця Хмельницького, 9б, Винники, Львівська область, Украина);4;\n        \n         CHAdeMO - відключений - 16.99 ₴/⚡ CCS 2/CCS 1 - вільний - 16.99 ₴/⚡ Type 2 Plug - зайнятий - 15.99 ₴/⚡ Type 1 - вільний - 15.99 ₴/⚡
49.812554;24.118669;TOKA #470 EMILY RESORT (вулиця Хмельницького, 9б, Винники, Львівська область, Украина);2;\n        \n         Type 2 - вільний - 12.99 ₴/⚡ Type 2 - вільний - 12.99 ₴/⚡
49.798953;24.016997;TOKA #471 Dragon Park Lviv (м. Львів, вул. Стрийська, 202);2;\n        \n         Type 2 - вільний - 13.99 ₴/⚡ Type 2 Plug - зайнятий - 13.99 ₴/⚡
49.798965;24.017001;TOKA #472 Dragon Park Lviv (м. Львів, вул. Стрийська, 202);2;\n        \n         Type 2 - вільний - 13.99 ₴/⚡ Type 1 - вільний - 13.99 ₴/⚡
49.8166;24.1143;TOKA #459 EMILY RESORT (вулиця Хмельницького, 9б, Винники, Львівська область, Украина);2;\n        \n         Type 2 - вільний - 12.99 ₴/⚡ Type 2 - вільний - 12.99 ₴/⚡
49.8165;24.1144;TOKA #460 EMILY RESORT (вулиця Хмельницького, 9б, Винники, Львівська область, Украина);2;\n        \n         Type 2 - вільний - 12.99 ₴/⚡ Type 1 - вільний - 12.99 ₴/⚡
49.812875;24.11825;TOKA #469 EMILY RESORT (вулиця Хмельницького, 9б, Винники, Львівська область, Украина);2;\n        \n         Type 2 - вільний - 12.99 ₴/⚡ Type 1 - вільний - 12.99 ₴/⚡
50.412185;30.544295;TOKA #473 Lypky (Lypky);2;\n        \n         Type 2 Plug - вільний - 8.88 ₴/⚡ Type 2 Plug - вільний - 8.88 ₴/⚡
49.719079;23.903421;TOKA #474 Shaiba Charging Station (вул. Михайла Грушевського, 21, Пустомити, Львівська обл.);2;\n        \n         Type 2 Plug - вільний - 14.99 ₴/⚡ Type 1 - вільний - 14.99 ₴/⚡
50.514214;30.498621;TOKA #1011 DREAM berry Fast Charger (м. Київ, Оболонський просп., 21-б);4;\n        \n         CHAdeMO - вільний - 17.99 ₴/⚡ CCS 2 - вільний - 17.99 ₴/⚡ Type 2 Plug - вільний - 15.99 ₴/⚡ Type 1 - вільний - 15.99 ₴/⚡
50.450452;30.50929;TOKA #476 Home Station (Івана Франка, 4Б);2;\n        \n         Type 2 Plug - вільний - 0.00 ₴/⚡ Type 2 Plug - вільний - 0.00 ₴/⚡
50.418062;30.54636;TOKA# 396 TRUMP Charging Station (м. Київ, б-р. Миколи Міхновського (Дружби Народів), 32);2;\n        \n         Type 1 - вільний - 13.99 ₴/⚡ Type 1 - вільний - 13.99 ₴/⚡
50.458347;30.407464;TOKA #478 Skoda (проспект Перемоги, 67, Київ);2;\n        \n         Type 2 - вільний - 0.00 ₴/⚡ Type 2 - вільний - 0.00 ₴/⚡
50.412734;30.544679;TOKA #480 Lypky (Lypky);3;\n        \n         Type 2 - вільний - 8.88 ₴/⚡ Type 2 Plug - вільний - 8.88 ₴/⚡ Type 2 Plug - вільний - 8.88 ₴/⚡
50.410935;30.544541;TOKA #479 Lypky (Lypky);5;\n        \n         Type 2 Plug - вільний - 8.88 ₴/⚡ Type 2 Plug - вільний - 8.88 ₴/⚡ Type 2 Plug - вільний - 8.88 ₴/⚡ Type 2 Plug - вільний - 8.88 ₴/⚡ Type 2 - вільний - 8.88 ₴/⚡
50.400558;30.505804;TOKA# 481 Demiivska-Buyko City Station (м. Київ, вул. Професора Буйка, 29);3;\n        \n         Type 1 - вільний - 13.99 ₴/⚡ Type 2 - вільний - 12.99 ₴/⚡ Type 1 - вільний - 12.99 ₴/⚡
50.41314;30.651477;TOKA #979 NEW WAY  (м. Київ, вул. Архитектора Вербицького, 1);3;\n        \n         Type 2 - вільний - 13.99 ₴/⚡ Type 1 - вільний - 13.99 ₴/⚡ Type 1 - вільний - 13.99 ₴/⚡
48.678425;26.583894;TOKA #485 Miska Rada (м. Кам'янець-Подільський, вул. Лесі Українки, 32);1;\n        \n         Type 2 Plug - вільний - 14.99 ₴/⚡
50.409417;30.544565;TOKA #486 Lypky (Lypky);4;\n        \n         Type 2 - вільний - 8.88 ₴/⚡ Type 2 Plug - зайнятий - 8.88 ₴/⚡ Type 2 Plug - вільний - 8.88 ₴/⚡ Type 2 Plug - вільний - 8.88 ₴/⚡
46.438146;30.730743;ТОКА #489 Admiralskiy (м. Одеса, Адміральський проспект, 34А);1;\n        \n         Type 1 - вільний - 15.99 ₴/⚡
50.410497;30.545681;TOKA #487 Lypky (Lypky);6;\n        \n         Type 2 - зайнятий - 8.88 ₴/⚡ Type 2 Plug - вільний - 8.88 ₴/⚡ Type 2 Plug - зайнятий - 8.88 ₴/⚡ Type 2 Plug - вільний - 8.88 ₴/⚡ Type 2 Plug - вільний - 8.88 ₴/⚡ Type 2 Plug - вільний - 8.88 ₴/⚡
50.41038;30.546744;TOKA #488 Lypky (Lypky);2;\n        \n         Type 2 - вільний - 8.88 ₴/⚡ Type 2 Plug - зайнятий - 8.88 ₴/⚡
50.410341;30.545586;TOKA #501 Lypky (Lypky);3;\n        \n         Type 2 Plug - вільний - 8.88 ₴/⚡ Type 2 Plug - вільний - 8.88 ₴/⚡ Type 2 Plug - вільний - 8.88 ₴/⚡
48.357616;24.410806;TOKA #494 HVOYA ();2;\n        \n         Type 2 - вільний - 0.00 ₴/⚡ Type 1 - вільний - 0.00 ₴/⚡
50.606466;32.387344;TOKA #495 BAT ();3;\n        \n         Type 2 Plug - вільний - 0.00 ₴/⚡ Type 2 Plug - вільний - 0.00 ₴/⚡ Type 1 - вільний - 0.00 ₴/⚡
50.398226;30.638041;TOKA #1003 Piramida Fast Charger (м. Київ, вул. Олександра Мишуги, 4);4;\n        \n         CCS 2/CCS 1 - вільний - 15.99 ₴/⚡ Type 2 Plug - вільний - 12.99 ₴/⚡ Type 1 - вільний - 12.99 ₴/⚡ GB/T DC - вільний - 15.99 ₴/⚡
50.410807;30.546724;TOKA #502 Lypky (Lypky);1;\n        \n         Type 2 Plug - вільний - 8.88 ₴/⚡
50.358589;30.34371;TOKA #521 OKKO Gas Station (Фастівський р-н, тг Боярська, автодорога Київське півкільце-Крюківщина-Боярка, 6 км+922 м (Тарасівка));2;\n        \n         Type 2 - невідомий - 12.99 ₴/⚡ Type 2 - невідомий - 12.99 ₴/⚡
48.363234;24.41745;TOKA #522 Westhill (урочище Вишні ,329, Поляниця, Івано-Франківська область);2;\n        \n         Type 2 Plug - вільний - 0.00 ₴/⚡ Type 1 - вільний - 0.00 ₴/⚡
48.363262;24.417319;TOKA #523 Rest&Ski Apartments (570, Поляниця, Івано-Франківська область, Украина);2;\n        \n         Type 2 Plug - вільний - 0.00 ₴/⚡ Type 1 - вільний - 0.00 ₴/⚡
48.363166;24.417226;TOKA #524 Rest&Ski Apartments (570, Поляниця, Івано-Франківська область, Украина);2;\n        \n         Type 2 Plug - вільний - 0.00 ₴/⚡ Type 1 - вільний - 0.00 ₴/⚡
48.36313;24.417346;TOKA #525 Rest&Ski Apartments (570, Поляниця, Івано-Франківська область, Украина);2;\n        \n         Type 2 Plug - вільний - 0.00 ₴/⚡ Type 1 - вільний - 0.00 ₴/⚡
49.905452;23.943959;TOKA #530 AZUZ-KVITKA (вулиця Курортний проїзд 1 смт. Брюховичі, Львівська обл.);3;\n        \n         Type 1 - вільний - 14.99 ₴/⚡ Type 2 - вільний - 14.99 ₴/⚡ Type 2 Plug - вільний - 14.99 ₴/⚡
49.869432;24.011798;TOKA #531 AZUZ-Holosko (м. Львів, вул. Під Голоском, 2а);3;\n        \n         Type 1 - вільний - 14.99 ₴/⚡ Type 2 Plug - відключений - 14.99 ₴/⚡ Type 2 - вільний - 14.99 ₴/⚡
50.340016;30.293388;TOKA #532 Private station ();2;\n        \n         Type 2 Plug - зайнятий - 0.00 ₴/⚡ GB/T AC - вільний - 0.00 ₴/⚡
50.454325;30.611586;TOKA #1006 DOMA Center Fast Charger (вул. Будівельників, 40 м. Київ);4;\n        \n         CHAdeMO - вільний - 16.99 ₴/⚡ CCS 2/CCS 1 - вільний - 17.99 ₴/⚡ Type 2 Plug - вільний - 13.99 ₴/⚡ Type 1 - вільний - 13.99 ₴/⚡
50.533448;30.606664;TOKA #989 OKKO Gas Station (вул. Милославська, 2-А, Київ);1;\n        \n         Type 2/Type 1 - зайнятий - 12.99 ₴/⚡
50.531131;30.608068;TOKA #1016 Desna Sky (м. Київ, вул. Оноре де Бальзака, 85);4;\n        \n         CCS 2 - вільний - 15.99 ₴/⚡ Type 2 Plug - зайнятий - 12.99 ₴/⚡ Type 1 - зайнятий - 12.99 ₴/⚡ GB/T DC - вільний - 15.99 ₴/⚡
46.435297;30.72623;TOKA #541 SILPO (вул. Люстдорфська дорога, 54, Одеса);2;\n        \n         Type 2 Plug - зайнятий - 14.99 ₴/⚡ Type 1 - вільний - 14.99 ₴/⚡
48.411786;35.039988;TOKA #542 OKKO Gas Station (м.Дніпро, вул.Космічна, 32 А);2;\n        \n         Type 2 Plug - вільний - 13.99 ₴/⚡ Type 1 - вільний - 13.99 ₴/⚡
50.412215;30.544635;TOKA #503 Lypky (Lypky);1;\n        \n         Type 2 - вільний - 8.88 ₴/⚡
50.412;30.548173;TOKA #504 Lypky (Lypky);5;\n        \n         Type 2 Plug - невідомий - 8.88 ₴/⚡ Type 1 - невідомий - 8.88 ₴/⚡ Type 1 - невідомий - 8.88 ₴/⚡ Type 1 - невідомий - 8.88 ₴/⚡ Type 1 - невідомий - 8.88 ₴/⚡
48.733722;30.171824;TOKA #544 Umanpivo Fast Charger (Умань, вул. Дерев'янка, 21);3;\n        \n         CCS 2 - вільний - 17.99 ₴/⚡ CHAdeMO - вільний - 17.99 ₴/⚡ Type 2 Plug - вільний - 13.99 ₴/⚡
50.493341;30.468395;TOKA #545 Lider billiards Rapid Charger (вул. Семена Скляренка, 5, Київ);3;\n        \n         CHAdeMO - вільний - 15.99 ₴/⚡ CCS 2 - вільний - 16.99 ₴/⚡ GB/T DC - вільний - 16.99 ₴/⚡
46.599298;30.806681;TOKA #546 Suvorovskii NEW (м. Одеса, 1-й км. Новомиколаївської дороги);1;\n        \n         Type 2/Type 1 - невідомий - 14.99 ₴/⚡
48.733761;30.171194;TOKA #1118 Umanpivo (Умань, вул. Дерев'янка, 21);2;\n        \n         Type 2 - вільний - 13.99 ₴/⚡ Type 1 - вільний - 13.99 ₴/⚡
50.320043;31.034659;TOKA #550 OKKO Gas Station Fast Charger (Бориспільський р-н, с/р Іванківська, а/д Київ-Харків-Довжанський, 45 км+20 м);3;\n        \n         CCS 2 - вільний - 16.99 ₴/⚡ CHAdeMO - вільний - 15.99 ₴/⚡ Type 2 Plug - вільний - 12.99 ₴/⚡
50.34403;30.417863;TOKA #551 OKKO Gas Station Fast Charger (Гатненская с/р, а/д М-05 Киев-Одесса, 15 км+(450-622) м);3;\n        \n         CCS 2 - вільний - 16.99 ₴/⚡ CHAdeMO - вільний - 15.99 ₴/⚡ Type 2 Plug - вільний - 12.99 ₴/⚡
50.354634;30.436243;TOKA #552 OKKO Gas Station Fast Charger (Київська обл., смт. Чабани, Одеське шосе, 12);3;\n        \n         CCS 2 - вільний - 16.99 ₴/⚡ CCS 2 - вільний - 16.99 ₴/⚡ Type 2 Plug - зайнятий - 12.99 ₴/⚡
49.743212;24.0143;TOKA #554 OKKO Gas Station Fast Charger (вул. Стрийская, 34, Солонка, Львівська обл.);3;\n        \n         CCS 2 - вільний - 16.99 ₴/⚡ CHAdeMO - вільний - 15.99 ₴/⚡ Type 2 Plug - вільний - 12.99 ₴/⚡
50.604257;26.401891;TOKA #553 OKKO Gas Station Fast Charger (Рівненська обл., с. Біла Криниця, вул. Рівненська, 112);3;\n        \n         CCS 2 - вільний - 16.99 ₴/⚡ CHAdeMO - вільний - 15.99 ₴/⚡ Type 2 Plug - вільний - 12.99 ₴/⚡
49.899099;24.144583;TOKA #555 OKKO Gas Station Fast Charger (вул. Київська, 2, Гамаліївка, Львівська обл.);3;\n        \n         CCS 2 - вільний - 16.99 ₴/⚡ CCS 2 - вільний - 16.99 ₴/⚡ Type 2 Plug - вільний - 12.99 ₴/⚡
49.743095;24.014383;TOKA #556 OKKO Gas Station Fast Charger (вул. Стрийская, 34, Солонка, Львівська обл.);3;\n        \n         CCS 2 - вільний - 16.99 ₴/⚡ CCS 2 - вільний - 16.99 ₴/⚡ Type 2 Plug - вільний - 12.99 ₴/⚡
49.043674;23.5104;TOKA #557 OKKO Gas Station Fast Charger (вул. Героїв Маківки, 10, Сколе , Львівська обл.);3;\n        \n         CCS 2 - вільний - 16.99 ₴/⚡ CHAdeMO - вільний - 15.99 ₴/⚡ Type 2 Plug - вільний - 12.99 ₴/⚡
48.565868;30.231049;TOKA #558 OKKO Gas Station Fast Charger (Уманський р-н, с/р Фурманська, а/д Київ-Одеса, 226 км+700 м);3;\n        \n         CCS 2 - вільний - 16.99 ₴/⚡ CHAdeMO - вільний - 15.99 ₴/⚡ Type 2 Plug - вільний - 12.99 ₴/⚡
50.604626;26.613378;TOKA #559 OKKO Gas Station Fast Charger (Горбаків, вул. Центральна, 3-А);3;\n        \n         CCS 2 - вільний - 16.99 ₴/⚡ CHAdeMO - вільний - 15.99 ₴/⚡ Type 2 Plug - вільний - 12.99 ₴/⚡
48.567833;30.232394;TOKA #560 OKKO Gas Station Fast Charger (Уманський р-н, с/р Ладижинська, а/д Київ-Одеса 226 км+310 м (ліворуч));3;\n        \n         CCS 2 - вільний - 16.99 ₴/⚡ CHAdeMO - вільний - 15.99 ₴/⚡ Type 2 Plug - вільний - 12.99 ₴/⚡
50.604623;26.613424;TOKA #561 OKKO Gas Station Fast Charger (Горбаків, вул. Центральна, 3-А);3;\n        \n         CCS 2/GBT DC - вільний - 16.99 ₴/⚡ CCS 2/GBT DC - вільний - 16.99 ₴/⚡ Type 2 Plug - вільний - 12.99 ₴/⚡
49.899031;24.144465;TOKA #562 OKKO Gas Station Fast Charger (вул. Київська, 2, Гамаліївка, Львівська обл.);3;\n        \n         CCS 2 - вільний - 16.99 ₴/⚡ CHAdeMO - вільний - 15.99 ₴/⚡ Type 2 Plug - вільний - 12.99 ₴/⚡
50.286158;28.826948;TOKA #563 OKKO Gas Station Fast Charger (Житомирський р-н, с/р Левківська, а/д Київ-Чоп, 127км+198м);3;\n        \n         CCS 2 - вільний - 16.99 ₴/⚡ CHAdeMO - вільний - 15.99 ₴/⚡ Type 2 Plug - вільний - 12.99 ₴/⚡
46.575058;30.575467;TOKA #565 OKKO Gas Station Fast Charger (Біляївський р-н, с/р Нерубайська, автодорога Київ-Одеса 454 км, 1);3;\n        \n         CCS 2 - вільний - 16.99 ₴/⚡ CCS 2 - вільний - 16.99 ₴/⚡ Type 2 Plug - вільний - 12.99 ₴/⚡
50.35471;30.436131;TOKA #564 OKKO Gas Station Fast Charger (Київська обл., смт. Чабани, Одеське шосе, 12);3;\n        \n         CCS 2 - вільний - 16.99 ₴/⚡ CHAdeMO - вільний - 15.99 ₴/⚡ Type 2 Plug - зайнятий - 12.99 ₴/⚡
50.286139;28.826813;TOKA #566 OKKO Gas Station Fast Charger (Житомирський р-н, с/р Левківська, а/д Київ-Чоп, 127км+198м);3;\n        \n         CCS 2/GBT DC - вільний - 16.99 ₴/⚡ CCS 2/GBT DC - вільний - 16.99 ₴/⚡ Type 2 Plug - вільний - 12.99 ₴/⚡
50.344126;30.417697;TOKA #567 OKKO Gas Station Fast Charger (Гатненская с/р, а/д М-05 Киев-Одесса, 15 км+(450-622) м);3;\n        \n         CCS 2 - вільний - 16.99 ₴/⚡ CCS 2 - вільний - 16.99 ₴/⚡ Type 2 Plug - вільний - 12.99 ₴/⚡
50.419415;29.842269;TOKA #568 OKKO Gas Station Fast Charger (вул. Київська, 50-52, Калинівка, Київська обл.);3;\n        \n         CCS 2/GBT DC - вільний - 16.99 ₴/⚡ CCS 2/GBT DC - вільний - 16.99 ₴/⚡ Type 2 Plug - вільний - 12.99 ₴/⚡
50.44397;30.426378;TOKA #584  Orly Park hotel (бульвар Вацлава Гавела, 9В, Київ);2;\n        \n         Type 2 - вільний - 12.99 ₴/⚡ Type 1 - вільний - 12.99 ₴/⚡
50.449836;30.521582;TOKA #2006 Grinchenko Fast Charger (вул. Бориса Грінченка, 1, м. Київ);4;\n        \n         CCS 2/CCS 1 - вільний - 16.99 ₴/⚡ Type 2 Plug - вільний - 14.99 ₴/⚡ Type 1 - вільний - 14.99 ₴/⚡ GB/T DC - вільний - 16.99 ₴/⚡
50.437879;30.522919;TOKA #615 Palace of Sports (Спортивна площа, 1, м. Київ);4;\n        \n         CCS 2/CCS 1 - вільний - 16.99 ₴/⚡ Type 2 Plug - вільний - 12.99 ₴/⚡ Type 1 - вільний - 12.99 ₴/⚡ GB/T DC - вільний - 16.99 ₴/⚡
50.411775;30.605387;TOKA #1000 NOVUS Fast Charger (вулиця Здолбунівська, 7г, Київ);4;\n        \n         CCS 2 - невідомий - 16.99 ₴/⚡ Type 2 Plug - невідомий - 12.99 ₴/⚡ Type 1 - невідомий - 12.99 ₴/⚡ GB/T DC - невідомий - 16.99 ₴/⚡
50.067683;25.163835;TOKA #582 OKKO Gas Station Fast Charger (вул. Березова, 1-А, Броди, Львівська обл.);3;\n        \n         CCS 2/GBT DC - вільний - 16.99 ₴/⚡ CCS 2/GBT DC - вільний - 16.99 ₴/⚡ Type 2 Plug - вільний - 12.99 ₴/⚡
50.067613;25.163626;TOKA #575 OKKO Gas Station Fast Charger (вул. Березова, 1-А, Броди, Львівська обл.);3;\n        \n         CCS 2 - вільний - 16.99 ₴/⚡ CHAdeMO - вільний - 15.99 ₴/⚡ Type 2 Plug - вільний - 12.99 ₴/⚡
49.043537;23.51047;TOKA #581 OKKO Gas Station Fast Charger (вул. Героїв Маківки, 10, Сколе , Львівська обл.);3;\n        \n         CCS 2 - вільний - 16.99 ₴/⚡ CCS 2 - вільний - 16.99 ₴/⚡ Type 2 Plug - вільний - 12.99 ₴/⚡
50.229753;30.64161;FASTER #586 Tandyr restaurant (Київська область, смт. Козин, вул. Київська, буд. 11-д);3;\n        \n         Type 2 - вільний - 15.99 ₴/⚡ Type 1 - вільний - 15.99 ₴/⚡ Type 1 - вільний - 15.99 ₴/⚡
48.939224;24.721958;TOKA #588 Сar wash 24/7 (м. Івано Франківськ  вул. Максимовича 10);4;\n        \n         CHAdeMO - вільний - 15.99 ₴/⚡ CCS 2/CCS 1 - вільний - 15.99 ₴/⚡ Type 2 Plug - вільний - 12.99 ₴/⚡ GB/T AC - відключений - 12.99 ₴/⚡
50.410328;30.545334;TOKA #516 Lypky (Lypky);1;\n        \n         Type 2 Plug - вільний - 8.88 ₴/⚡
48.35171;24.443831;TOKA #590 Stara Pravda (вул. Подина 62A, Поляниця, Івано-Франківська обл.);2;\n        \n         Type 2 Plug - вільний - 13.99 ₴/⚡ Type 1 - вільний - 13.99 ₴/⚡
50.437987;30.621245;TOKA #591 Comfort Town - Novus (м. Київ вул. Регенераторна, 4а);3;\n        \n         Type 2 - вільний - 10.50 ₴/⚡ Type 1 - зайнятий - 10.50 ₴/⚡ Type 1 - зайнятий - 10.50 ₴/⚡
50.43226;30.620518;TOKA #592 Сomfort Town Reg4/korp15 [тільки для мешканців] (м. Київ вул. Регенераторна,4 корпус 15);3;\n        \n         Type 2 - вільний - 10.50 ₴/⚡ Type 1 - вільний - 10.50 ₴/⚡ Type 1 - вільний - 10.50 ₴/⚡
47.97641;33.140558;TOKA #593 Bokovenka (Кудашівка, Дніпропетровська область, Україна);3;\n        \n         Type 2 - вільний - 0.00 ₴/⚡ Type 2 Plug - вільний - 0.00 ₴/⚡ Type 2 Plug - вільний - 0.00 ₴/⚡
50.518647;30.238345;FASTER #594 EKO-market (м. Ірпінь, вул. Соборна, 105);3;\n        \n         Type 2 - вільний - 14.99 ₴/⚡ Type 1 - вільний - 14.99 ₴/⚡ Type 1 - вільний - 14.99 ₴/⚡
50.49957;30.609304;TOKA #984 EKO-market (вул. Миколи Закревського 12, м. Київ);3;\n        \n         Type 2 - вільний - 12.99 ₴/⚡ Type 1 - вільний - 12.99 ₴/⚡ Type 1 - вільний - 12.99 ₴/⚡
50.475543;30.506728;FASTER #597 TIP TOP tire service (м. Київ, вул Межигірська 78);3;\n        \n         Type 2 - вільний - 13.99 ₴/⚡ Type 1 - вільний - 13.99 ₴/⚡ Type 1 - вільний - 13.99 ₴/⚡
48.621018;22.512327;FASTER #598 Bogolvar hotel  ( Закарпатська область, с. Анталовці, вул. Миру, 17-А);3;\n        \n         Type 2 - вільний - 12.99 ₴/⚡ Type 1 - вільний - 12.99 ₴/⚡ Type 1 - вільний - 12.99 ₴/⚡
50.419308;30.426562;TOKA #599 Aerostar (Відрадний проспект, 95, Київ);2;\n        \n         Type 2 Plug - зайнятий - 0.00 ₴/⚡ Type 2 Plug - вільний - 0.00 ₴/⚡
50.408674;30.544449;TOKA #505 Lypky (Lypky);1;\n        \n         Type 2 Plug - вільний - 8.88 ₴/⚡
50.41955;29.842176;TOKA #574 OKKO Gas Station Fast Charger (вул. Київська, 50-52, Калинівка, Київська обл.);3;\n        \n         CCS 2 - вільний - 16.99 ₴/⚡ CHAdeMO - вільний - 15.99 ₴/⚡ Type 2 Plug - вільний - 12.99 ₴/⚡
50.41791;29.841186;TOKA #569 OKKO Gas Station Fast Charger (вул. Київська, 3-В, Калинівка, Київська обл.);3;\n        \n         CCS 2 - вільний - 16.99 ₴/⚡ CCS 2 - вільний - 16.99 ₴/⚡ Type 2 Plug - вільний - 12.99 ₴/⚡
50.417993;29.84066;TOKA #573 OKKO Gas Station Fast Charger (вул. Київська, 3-В, Калинівка, Київська обл.);3;\n        \n         CCS 2 - вільний - 16.99 ₴/⚡ CHAdeMO - вільний - 15.99 ₴/⚡ Type 2 Plug - вільний - 12.99 ₴/⚡
48.349098;24.434761;TOKA #604 DIAMOND RESORT (вул. Стаїще, 377, Буковель, Івано-Франківська обл.);2;\n        \n         Type 2 Plug - зайнятий - 12.99 ₴/⚡ Type 1 - вільний - 12.99 ₴/⚡
48.319546;24.470849;TOKA #605 Skogur Home & Resort (Івано-Франківська область, с. Яблуниця);2;\n        \n         Type 2 Plug - вільний - 17.99 ₴/⚡ Type 1 - вільний - 17.99 ₴/⚡
50.486912;30.585402;TOKA #1010 Silpo Rayduzhna (м. Київ, вул. Райдужна, 15);3;\n        \n         CCS 2 - вільний - 15.99 ₴/⚡ GB/T DC - відключений - 15.99 ₴/⚡ Type 2 Plug - вільний - 12.99 ₴/⚡
50.317903;31.035645;TOKA #576 OKKO Gas Station Fast Charger (Бориспільський р-н, с/р Іванківська, а/д Київ-Харків-Довжанський, 45 км+250 м);3;\n        \n         CCS 2 - вільний - 16.99 ₴/⚡ CHAdeMO - вільний - 15.99 ₴/⚡ Type 2 Plug - вільний - 12.99 ₴/⚡
50.318004;31.035402;TOKA #579 OKKO Gas Station Fast Charger (Бориспільський р-н, с/р Іванківська, а/д Київ-Харків-Довжанський, 45 км+250 м);3;\n        \n         CCS 2 - вільний - 16.99 ₴/⚡ CCS 2 - вільний - 16.99 ₴/⚡ Type 2 Plug - вільний - 12.99 ₴/⚡
50.320231;31.034836;TOKA #571 OKKO Gas Station Fast Charger (Бориспільський р-н, с/р Іванківська, а/д Київ-Харків-Довжанський, 45 км+20 м);3;\n        \n         CCS 2 - вільний - 16.99 ₴/⚡ CCS 2 - вільний - 16.99 ₴/⚡ Type 2 Plug - вільний - 12.99 ₴/⚡
50.430986;30.413218;TOKA #607 Svoi Arena (бульвар Вацлава Гавела, 26, Київ);2;\n        \n         Type 2 Plug - вільний - 15.99 ₴/⚡ Type 1 - вільний - 15.99 ₴/⚡
50.6218;26.203188;TOKA #2031 Epicentr Fast Charger (м. Рівне, вул. Кулика і Гудачека (Макарова),  17);4;\n        \n         CHAdeMO - вільний - 16.89 ₴/⚡ CCS 2 - вільний - 16.89 ₴/⚡ Type 2 - вільний - 12.99 ₴/⚡ GB/T DC - вільний - 16.89 ₴/⚡
46.573748;30.573871;TOKA #1031 OKKO Gas Station Fast Charger (Біляївський р-н, с/р Нерубайська, автодорога Київ-Одеса 454 км, 2);3;\n        \n         CCS 2 - вільний - 16.99 ₴/⚡ CCS 2 - вільний - 16.99 ₴/⚡ Type 2 Plug - вільний - 12.99 ₴/⚡
46.575002;30.575552;TOKA #570 OKKO Gas Station Fast Charger (Біляївський р-н, с/р Нерубайська, автодорога Київ-Одеса 454 км, 1);3;\n        \n         CCS 2 - вільний - 16.99 ₴/⚡ CHAdeMO - вільний - 15.99 ₴/⚡ Type 2 Plug - вільний - 12.99 ₴/⚡
49.835751;24.068788;TOKA #616 [JBE] OKKO Gas Station (м. Львів, вул. Личаківська, 152-Б);4;\n        \n         CHAdeMO - відключений - 15.99 ₴/⚡ CCS 2/CCS 1 - вільний - 15.99 ₴/⚡ Type 2 Plug - відключений - 12.99 ₴/⚡ Type 1 - вільний - 12.99 ₴/⚡
50.495134;30.425697;FASTER #614 NOVUS Fast Charger (м. Київ, вул вулиця Івана Кавалерідзе, 1А);4;\n        \n         CHAdeMO - вільний - 15.99 ₴/⚡ CCS 2 - вільний - 15.99 ₴/⚡ Type 2 Plug - вільний - 15.99 ₴/⚡ Type 1 - вільний - 15.99 ₴/⚡
50.412394;30.544407;TOKA #506 Lypky (Lypky);1;\n        \n         Type 2 Plug - вільний - 8.88 ₴/⚡
49.813525;24.048454;TOKA #619 Eco Status, лікарня Святого Луки. (м. Львів, вул. Навроцького, 23);2;\n        \n         Type 2 Plug - вільний - 15.99 ₴/⚡ Type 1 - вільний - 15.99 ₴/⚡
49.873371;24.039073;TOKA #620 Eco Status, лікарня Святого Пантелеймона. (вул. Івана Миколайчука, 9, м. Львів);2;\n        \n         Type 2 Plug - вільний - 15.99 ₴/⚡ Type 1 - вільний - 15.99 ₴/⚡
50.410837;30.54533;TOKA #507 Lypky (Lypky);2;\n        \n         Type 2 Plug - вільний - 8.88 ₴/⚡ Type 2 Plug - вільний - 8.88 ₴/⚡
48.470844;34.016146;TOKA #617 Electric car charging (вул. Молодіжна, 48Б, Вільногірськ, Дніпропетровська обл.);1;\n        \n         Type 1 - вільний - 12.99 ₴/⚡
48.882238;24.630735;TOKA #621 STO Avto-Karolina (вул. Миру, 71, Драгомирчани, Івано-Франківська обл.);3;\n        \n         GB/T AC - вільний - 17.99 ₴/⚡ Type 1 - вільний - 17.99 ₴/⚡ Type 2 Plug - вільний - 17.99 ₴/⚡
48.964582;30.384804;TOKA #624 Aquadar (Черкаська обл.  смт. Маньківка, вул. Лісова, буд. 1);2;\n        \n         Type 2 - зайнятий - 0.00 ₴/⚡ Type 1 - вільний - 0.00 ₴/⚡
50.421472;29.882292;TOKA #626 T-79 Station (Київська область, село Копилів , вул. Копилівська 3);2;\n        \n         Type 2 - невідомий - 12.99 ₴/⚡ Type 1 - невідомий - 12.99 ₴/⚡
49.535845;30.798382;TOKA #627 GONCHARI (Київська область, Богуславський район, с.Дибинці, вул. Ланок, 45);3;\n        \n         Type 2 - вільний - 13.99 ₴/⚡ Type 2 Plug - вільний - 13.99 ₴/⚡ Type 1 - вільний - 13.99 ₴/⚡
50.381164;30.919459;TOKA #1015 4kolesa (вул. Друга Запорізька, 1 масив Промінь Пристоличної с/р, Бориспільського р-ну Київської обл.);4;\n        \n         CHAdeMO - вільний - 17.99 ₴/⚡ CCS 2 - вільний - 17.99 ₴/⚡ Type 2 - вільний - 14.49 ₴/⚡ GB/T DC - вільний - 17.99 ₴/⚡
49.756292;24.015869;TOKA #630 Sonjachnuy Maydan (Львівська область, Солонка, вул..Орлика, 1Б);1;\n        \n         Type 1 - вільний - 10.99 ₴/⚡
49.756263;24.015878;TOKA #631 Sonjachnuy Maydan (Львівська область, Солонка, вул..Орлика, 1Б);1;\n        \n         Type 2 Plug - вільний - 10.99 ₴/⚡
49.574606;25.638074;TOKA #632 KomfortMD (вул. Текстильна, 28-В, м, Тернопіль);4;\n        \n         CHAdeMO - вільний - 15.50 ₴/⚡ CCS 2 - вільний - 15.50 ₴/⚡ Type 2 Plug - зайнятий - 11.99 ₴/⚡ Type 1 - зайнятий - 11.99 ₴/⚡
47.932859;33.318854;TOKA #634 Fast Charger (вул. Окружна, 127, Кривий Ріг);4;\n        \n         CHAdeMO - вільний - 16.99 ₴/⚡ CCS 2 - вільний - 16.99 ₴/⚡ Type 2 - вільний - 14.99 ₴/⚡ GB/T DC - вільний - 16.99 ₴/⚡
46.476809;30.764765;TOKA #622 NEMO (м. Одеса, Пляж Ланжерон, 1);3;\n        \n         Type 2 Plug - вільний - 14.99 ₴/⚡ Type 1 - вільний - 14.99 ₴/⚡ GB/T AC - вільний - 14.99 ₴/⚡
50.470811;30.478261;TOKA #2009 Promenada Fast Charger (вул. Багговутівська, 17-21, м. Київ);4;\n        \n         CHAdeMO - вільний - 15.99 ₴/⚡ CCS 2 - вільний - 16.99 ₴/⚡ Type 2 - вільний - 12.99 ₴/⚡ GB/T DC - вільний - 16.99 ₴/⚡
49.82958;23.9486;TOKA #635 Kurmanovycha 120kW (вулиця Генерала Курмановича, 2а, Львів);4;\n        \n         CHAdeMO - вільний - 18.49 ₴/⚡ CCS 2 - вільний - 18.49 ₴/⚡ Type 2 Plug - вільний - 14.99 ₴/⚡ Type 1 - зайнятий - 14.99 ₴/⚡
50.466406;30.654094;TOKA #1005 NOVUS Fast Charger (м. Київ, просп. Броварський, 18-Д);4;\n        \n         CHAdeMO - вільний - 16.99 ₴/⚡ CCS 2 - вільний - 16.99 ₴/⚡ Type 2 - вільний - 12.99 ₴/⚡ GB/T DC - вільний - 16.99 ₴/⚡
46.414848;30.713301;TOKA #657 City Center Fast Charger (м. Одеса, просп. Небесної сотні, 2);4;\n        \n         CHAdeMO - невідомий - 17.99 ₴/⚡ CCS 2 - невідомий - 18.99 ₴/⚡ Type 2 Plug - невідомий - 15.99 ₴/⚡ GB/T DC - невідомий - 18.99 ₴/⚡
50.444577;30.453862;TOKA #638 EVoltiq Lagoda (м. Київ, вул. Польова, 21);4;\n        \n         CHAdeMO - вільний - 15.99 ₴/⚡ CCS 2 - вільний - 16.99 ₴/⚡ Type 2 - вільний - 12.99 ₴/⚡ GB/T DC - вільний - 16.99 ₴/⚡
50.621663;26.20324;TOKA #1073 Epicentr (м. Рівне, вул. Кулика і Гудачека (Макарова),  17);3;\n        \n         Type 2 Plug - вільний - 12.99 ₴/⚡ Type 1 - вільний - 12.99 ₴/⚡ GB/T AC - вільний - 12.99 ₴/⚡
50.621739;26.203204;TOKA #1071 Epicentr (м. Рівне, вул. Кулика і Гудачека (Макарова),  17);3;\n        \n         Type 2 Plug - вільний - 12.99 ₴/⚡ Type 1 - зайнятий - 12.99 ₴/⚡ GB/T AC - вільний - 12.99 ₴/⚡
50.83918;24.335719;TOKA #641 Avtomyyka ( вул. Привокзальна 7, Володимир, Волинська обл.);3;\n        \n         Type 2 Plug - вільний - 12.99 ₴/⚡ Type 1 - вільний - 12.99 ₴/⚡ GB/T AC - вільний - 12.99 ₴/⚡
49.178236;26.573609;TOKA #642 Epicentr Fast Charger (Хмельницька обл., м. Городок, вул. Шевченка, 39/15);4;\n        \n         CHAdeMO - вільний - 15.99 ₴/⚡ CCS 2 - вільний - 15.99 ₴/⚡ Type 2 - вільний - 11.99 ₴/⚡ GB/T DC - вільний - 15.99 ₴/⚡
49.771195;24.002292;TOKA #2034 Epicentr Fast Charger (Львівська обл., с. Сокільники, вул. Зубрівська, 27);4;\n        \n         CCS 2 - вільний - 16.49 ₴/⚡ Type 2 Plug - вільний - 16.49 ₴/⚡ GB/T AC - вільний - 12.99 ₴/⚡ GB/T DC - вільний - 16.49 ₴/⚡
50.371275;30.449033;TOKA #645 Respublika [тільки для мешканців] (вул.Теремківська, 4а, Київ);3;\n        \n         Type 2 Plug - вільний - 12.99 ₴/⚡ Type 1 - зайнятий - 12.99 ₴/⚡ Type 1 - вільний - 12.99 ₴/⚡
49.437834;32.011457;TOKA #939 VIP MYYKA (вул. Ярославська, 7, Черкаси);3;\n        \n         Type 2 Plug - вільний - 14.99 ₴/⚡ Type 1 - вільний - 14.99 ₴/⚡ GB/T AC - вільний - 14.99 ₴/⚡
50.270524;28.700018;TOKA #2033 Epicentr Fast Charger (м. Житомир, Київське шосе, 4/2);4;\n        \n         CHAdeMO - вільний - 16.99 ₴/⚡ CCS 2 - вільний - 16.99 ₴/⚡ Type 2 - вільний - 12.99 ₴/⚡ GB/T DC - вільний - 16.99 ₴/⚡
48.734218;30.171839;TOKA #2025 Umanpivo Fast Charger (Умань, вул. Дерев'янка, 21);4;\n        \n         CHAdeMO - вільний - 17.99 ₴/⚡ CCS 2 - вільний - 17.99 ₴/⚡ Type 2 - вільний - 13.99 ₴/⚡ GB/T DC - вільний - 17.99 ₴/⚡
49.864276;24.05367;TOKA #1075 Epicentr (м. Львів, вул. Богдана Хмельницького, 188-А);3;\n        \n         Type 2 Plug - вільний - 11.99 ₴/⚡ GB/T AC - вільний - 11.99 ₴/⚡ Type 1 - вільний - 11.99 ₴/⚡
49.864165;24.053589;TOKA #1077 Epicentr (м. Львів, вул. Богдана Хмельницького, 188-А );3;\n        \n         Type 2 Plug - вільний - 11.99 ₴/⚡ GB/T AC - вільний - 11.99 ₴/⚡ Type 1 - вільний - 11.99 ₴/⚡
49.864336;24.053735;TOKA #2032 Epicentr Fast Charger (м. Львів, вул. Богдана Хмельницького, 188-А);4;\n        \n         CHAdeMO - вільний - 15.99 ₴/⚡ CCS 2 - вільний - 15.99 ₴/⚡ Type 2 - вільний - 11.99 ₴/⚡ GB/T DC - вільний - 15.99 ₴/⚡
50.270641;28.700198;TOKA #1078 Epicentr (м. Житомир, Київське шосе, 4/2);3;\n        \n         Type 2 Plug - вільний - 12.99 ₴/⚡ Type 1 - вільний - 12.99 ₴/⚡ GB/T AC - вільний - 12.99 ₴/⚡
50.270732;28.700325;TOKA #1079 Epicentr  (м. Житомир, Київське шосе, 4/2);3;\n        \n         Type 2 Plug - вільний - 12.99 ₴/⚡ Type 1 - вільний - 12.99 ₴/⚡ GB/T AC - вільний - 12.99 ₴/⚡
50.449251;30.425892;TOKA #665 MAXenergy (м. Київ вул. Машинобудівна, 44);2;\n        \n         Type 2 Plug - вільний - 13.99 ₴/⚡ Type 2 Plug - вільний - 13.99 ₴/⚡
50.449257;30.425843;TOKA #666 MAXenergy (м. Київ вул. Машинобудівна, 44);3;\n        \n         Type 2 Plug - вільний - 13.99 ₴/⚡ Type 1 - вільний - 13.99 ₴/⚡ GB/T AC - вільний - 13.99 ₴/⚡
48.320709;25.907551;TOKA #668 OKKO Gas Station (м. Чернівці, вул. Галицький шлях, 46-М);1;\n        \n         Type 2/Type 1 - невідомий - 15.99 ₴/⚡
49.437859;32.011394;TOKA #942 VIP MYYKA Fast Charger (вул. Ярославська, 7, Черкаси);4;\n        \n         CHAdeMO - вільний - 15.49 ₴/⚡ CCS 2 - вільний - 15.49 ₴/⚡ Type 2 - вільний - 15.49 ₴/⚡ GB/T DC - вільний - 15.49 ₴/⚡
48.567828;30.232392;TOKA #578 OKKO Gas Station Fast Charger (Уманський р-н, с/р Ладижинська, а/д Київ-Одеса 226 км+310 м (ліворуч));3;\n        \n         CCS 2 - вільний - 16.99 ₴/⚡ CCS 2 - вільний - 16.99 ₴/⚡ Type 2 Plug - вільний - 12.99 ₴/⚡
48.565787;30.231044;TOKA #572 OKKO Gas Station Fast Charger (Уманський р-н, с/р Фурманська, а/д Київ-Одеса, 226 км+700 м);3;\n        \n         CCS 2 - вільний - 16.99 ₴/⚡ CCS 2 - вільний - 16.99 ₴/⚡ Type 2 Plug - вільний - 12.99 ₴/⚡
50.465029;30.610026;TOKA #674 Artemida (Дарницький бульвар, 8-В м. Київ);3;\n        \n         Type 2 Plug - вільний - 12.99 ₴/⚡ Type 1 - вільний - 12.99 ₴/⚡ GB/T AC - вільний - 12.99 ₴/⚡
50.471864;30.398146;TOKA #675 Fayna Town (м. Київ, вул. Салютна, 2);3;\n        \n         Type 2 - вільний - 13.99 ₴/⚡ Type 1 - вільний - 13.99 ₴/⚡ Type 1 - вільний - 13.99 ₴/⚡
50.436064;30.499814;TOKA #676 ();3;\n        \n         Type 2 Plug - вільний - 0.00 ₴/⚡ Type 2 Plug - вільний - 0.00 ₴/⚡ Type 1 - вільний - 0.00 ₴/⚡
49.715853;23.904701;TOKA #677 Eco Status, готель Злата . (Львівська область, м. Пустомити вул. Грушевського 11);3;\n        \n         Type 2 Plug - вільний - 15.99 ₴/⚡ GB/T AC - вільний - 15.99 ₴/⚡ Type 1 - вільний - 15.99 ₴/⚡
49.785117;24.024086;TOKA #679 AZUZ-Kreator (м. Львів, вул. Стрийська 115);3;\n        \n         Type 2 Plug - вільний - 13.99 ₴/⚡ Type 1 - зайнятий - 13.99 ₴/⚡ GB/T AC - вільний - 13.99 ₴/⚡
49.838778;24.034388;TOKA #1144 Eco Status, ТЦ Роксолана. (м.Львів, Соборна площа, 14);2;\n        \n         Type 1 - вільний - 15.99 ₴/⚡ GB/T AC - вільний - 15.99 ₴/⚡
49.021019;33.641397;TOKA #10001 ELTIS TEST ();3;\n        \n         CCS 2 - невідомий - 0.00 ₴/⚡ GB/T DC - невідомий - 0.00 ₴/⚡ CHAdeMO - невідомий - 0.00 ₴/⚡
50.431788;30.392692;TOKA #2074 OKKO Gas Station Fast Charger (м. Київ, пр-т. Леся Курбаса, 2-Ж);4;\n        \n         CHAdeMO - вільний - 15.99 ₴/⚡ CCS 2 - вільний - 15.99 ₴/⚡ Type 2 - вільний - 12.99 ₴/⚡ GB/T DC - вільний - 15.99 ₴/⚡
50.451201;30.531616;TOKA #723 Dynamo Fast Charger (вул. Михайла Грушевського, 3, м. Київ);4;\n        \n         CHAdeMO - вільний - 16.99 ₴/⚡ CCS 2 - вільний - 17.99 ₴/⚡ Type 2 - вільний - 13.99 ₴/⚡ GB/T DC - відключений - 17.99 ₴/⚡
46.467105;30.737205;TOKA #701 Starosennaia-2 (м. Одеса, площа Старосінна 1-А);2;\n        \n         Type 2 - вільний - 14.99 ₴/⚡ Type 1 - вільний - 14.99 ₴/⚡
50.557101;30.274457;TOKA #684 KavaINN (провулок Сонячний, 1, м. Гостомель, Київська обл.);4;\n        \n         CHAdeMO - невідомий - 15.99 ₴/⚡ CCS 2 - невідомий - 15.99 ₴/⚡ Type 2 - невідомий - 12.99 ₴/⚡ GB/T DC - невідомий - 15.99 ₴/⚡
46.466819;30.739277;TOKA #702 Starosennaia (м. Одеса, площа Старосінна 1-А);2;\n        \n         Type 2 Plug - вільний - 14.99 ₴/⚡ Type 1 - вільний - 14.99 ₴/⚡
50.454617;30.37793;TOKA #508 Lypky - Lvivska (Lypky);4;\n        \n         Type 2 Plug - вільний - 8.88 ₴/⚡ Type 2 Plug - вільний - 8.88 ₴/⚡ Type 2 Plug - зайнятий - 8.88 ₴/⚡ Type 2 Plug - зайнятий - 8.88 ₴/⚡
50.435761;30.478478;TOKA #644 EVoltiq Malahit (вул. Богданівська, 7-Г, м. Київ);3;\n        \n         Type 2 Plug - зайнятий - 12.99 ₴/⚡ GB/T AC - вільний - 12.99 ₴/⚡ Type 1 - зайнятий - 12.99 ₴/⚡
49.351339;23.521068;TOKA #646 Eco Status, магазин Квіточка . (вул. Стрийська 103, м. Дрогобич, Львівська обл.);2;\n        \n         Type 2 Plug - невідомий - 15.99 ₴/⚡ Type 1 - невідомий - 15.99 ₴/⚡
49.356459;23.535262;TOKA #648 Eco Status, митний пост Дрогобич . (вул. Володимира Великого, 66/1, Дрогобич, Львівська обл.);1;\n        \n         Type 2 Plug - вільний - 15.99 ₴/⚡
49.356448;23.535171;TOKA #649 Eco Status, митний пост Дрогобич. (вул. Володимира Великого, 66/1, Дрогобич, Львівська обл.);1;\n        \n         Type 1 - вільний - 15.99 ₴/⚡
49.233193;23.339061;TOKA #650 Eco Status, готель ДіАнна . (вул. Степана Бандери, 12, Східниця, Львівська обл.);2;\n        \n         Type 2 Plug - вільний - 15.99 ₴/⚡ Type 1 - вільний - 15.99 ₴/⚡
49.832707;23.96271;TOKA #651 Eco Status (м. Львів вул Грузинська,25);1;\n        \n         Type 2 Plug - вільний - 15.99 ₴/⚡
49.798099;24.034145;TOKA #652 Eco Status, ринок Шувар№1. (вул. Хуторівка, 4Б, м. Львів);2;\n        \n         Type 2 Plug - вільний - 15.99 ₴/⚡ Type 1 - вільний - 15.99 ₴/⚡
49.765529;24.109472;TOKA #654 Eco Status, готель Галицька Корона .УВАГА,Перехідник на GBT та Type1 у адміністратора (вул. Степана Бандери, 86a, Давидів, Львівська обл.);1;\n        \n         Type 2 Plug - вільний - 15.99 ₴/⚡
49.893672;24.124507;TOKA #655 Eco Status, готель Древній Град.УВАГА,Перехідник GBT у адміністратора готелю. (7км. Траси Львів-Київ, Гамаліївка, Львівська обл.);2;\n        \n         Type 2 Plug - вільний - 15.99 ₴/⚡ Type 1 - вільний - 15.99 ₴/⚡
49.802797;24.905707;TOKA #662 Eco Status, Zolochiv castle (вул. В'ячеслава Чорновола, 5, Золочів, Львівська обл.);1;\n        \n         Type 2 Plug - вільний - 14.99 ₴/⚡
50.41328;30.547382;TOKA #509 Lypky (Lypky);1;\n        \n         Type 2 Plug - зайнятий - 8.88 ₴/⚡
50.493457;30.468287;TOKA #722 Lider billiards (вул. Семена Скляренка, 5, Київ);3;\n        \n         Type 2 - вільний - 12.99 ₴/⚡ Type 1 - зайнятий - 12.99 ₴/⚡ Type 1 - вільний - 12.99 ₴/⚡
50.450869;30.533162;TOKA #725 Dynamo (вул. Михайла Грушевського, 3, м. Київ);3;\n        \n         GB/T AC - вільний - 13.99 ₴/⚡ Type 1 - вільний - 13.99 ₴/⚡ Type 2 Plug - вільний - 13.99 ₴/⚡
49.798629;22.958263;TOKA #671  Eco Status, готель Світлиця,УВАГА,Перехідник на Type1 у адміністратора закладу. (вул. Дружби 173, с. Шегині, Львівська обл.);1;\n        \n         Type 2 Plug - вільний - 15.99 ₴/⚡
48.621701;22.308682;TOKA #697  Aqua Lux MOECO Energy (м. Ужгород, Підградська, 28);2;\n        \n         Type 2 Plug - невідомий - 14.99 ₴/⚡ Type 1 - невідомий - 14.99 ₴/⚡
49.870306;24.02317;TOKA #726 Eco Status, СТРЦ Спартак. (м. Львів вул. Гетьмана Мазепи 1Б);3;\n        \n         GB/T AC - вільний - 15.99 ₴/⚡ Type 1 - вільний - 15.99 ₴/⚡ Type 2 Plug - зайнятий - 15.99 ₴/⚡
49.224062;23.81178;TOKA #681  Eco Status, готель Dalim (вул. Шевченка, 261ж, Дуліби, Львівська обл.);2;\n        \n         Type 2 Plug - вільний - 15.99 ₴/⚡ Type 1 - вільний - 15.99 ₴/⚡
48.859777;23.462744;TOKA #685 Eco Status, готель Смерекова хата .УВАГА,Перехідники  на GBT та Type1  знаходяться у адміністратора готелю. (вул. Івана Франка, 57Б, Славське, Львівська обл.);1;\n        \n         Type 2 Plug - вільний - 15.99 ₴/⚡
48.714725;23.18962;TOKA #687 Eco Status, піцерія *Гранд*, Перехідник з Т2 на GBT знаходиться у адміністратора . (вул. Пушкіна, 15, Воловець, Закарпатська обл.);1;\n        \n         Type 2 Plug - вільний - 15.99 ₴/⚡
48.645657;22.275027;TOKA #688 Eco Status, готель Прага . (вул. Верховинська 38, м. Ужгород);2;\n        \n         Type 2 Plug - вільний - 15.99 ₴/⚡ Type 1 - вільний - 15.99 ₴/⚡
48.665464;25.502775;TOKA #729 Hotel De Luxe (Івано-Франківська обл., м.Городенка, вул. Шевченка, 44а);3;\n        \n         GB/T AC - вільний - 12.99 ₴/⚡ Type 1 - вільний - 12.99 ₴/⚡ Type 2 - вільний - 12.99 ₴/⚡
50.398412;30.304813;TOKA #730 KLO (Київська обл., с. Святопетрівське, вул. Зоряна, 20);4;\n        \n         CCS 2 - вільний - 0.00 ₴/⚡ Type 2 Plug - вільний - 0.00 ₴/⚡ Type 1 - вільний - 0.00 ₴/⚡ GB/T DC - вільний - 0.00 ₴/⚡
50.49934;30.363833;TOKA #731 WOG Fast Charger (вул. Берковецька, 6, Київ);4;\n        \n         CCS 2/CCS 1 - вільний - 16.99 ₴/⚡ Type 2 Plug - вільний - 13.99 ₴/⚡ Type 1 - вільний - 13.99 ₴/⚡ GB/T DC - вільний - 16.99 ₴/⚡
49.243595;22.977162;TOKA #689 Eco Status, готель Собінь .УВАГА,Перехідник на Type 1 , у адміністратора. (вул. Івана Франка, 3-А, Розлуч, Львівська обл.);1;\n        \n         Type 2 Plug - вільний - 15.99 ₴/⚡
49.530332;29.941852;TOKA #732 LuxWash (Київська обл., смт.Володарка , вул Зарічна 2А);2;\n        \n         Type 2 Plug - вільний - 14.99 ₴/⚡ Type 1 - вільний - 14.99 ₴/⚡
50.986776;24.386374;TOKA #691 Eco Status, Турійське Подвірʼя.УВАГА,Перехідник на Type 1,+GBT у адміністратора. (вул. Незалежності, 1, Блаженик, Волинська обл.);1;\n        \n         Type 2 Plug - вільний - 15.99 ₴/⚡
48.197819;23.312805;TOKA #733 BRSM Fast Charger (вул. Львівська, 218-А, Хуст, Закарпатська обл.);4;\n        \n         CHAdeMO - вільний - 19.99 ₴/⚡ CCS 2 - вільний - 19.99 ₴/⚡ Type 2 - вільний - 14.99 ₴/⚡ GB/T DC - вільний - 19.99 ₴/⚡
48.311432;24.442572;TOKA #724 Shpytsi Hotel&SPA  (вул. Горішків 348, с. Яблуниц, Івано-Франківська обл.);2;\n        \n         Type 1 - вільний - 0.00 ₴/⚡ Type 2 Plug - вільний - 0.00 ₴/⚡
48.457632;32.192445;TOKA #735 Lypove Fast Charger (Кіровоградська обл., с. Липове, вул. Центральна 8-а);4;\n        \n         CHAdeMO - вільний - 16.00 ₴/⚡ CCS 2 - вільний - 17.00 ₴/⚡ Type 2 - вільний - 13.00 ₴/⚡ GB/T DC - вільний - 17.00 ₴/⚡
49.43784;32.011433;TOKA #940 VIP MYYKA Fast Charger (вул. Ярославська, 7, Черкаси);4;\n        \n         CHAdeMO - вільний - 15.49 ₴/⚡ CCS 2 - вільний - 15.49 ₴/⚡ Type 2 Plug - вільний - 15.49 ₴/⚡ GB/T DC - вільний - 15.49 ₴/⚡
47.933501;33.402833;TOKA #737 Auto Plus Fast Charger (вул. Льотчиків, 42а, Кривий Ріг, Дніпропетровська обл.);4;\n        \n         CHAdeMO - вільний - 14.99 ₴/⚡ CCS 2 - вільний - 14.99 ₴/⚡ Type 2 Plug - вільний - 12.99 ₴/⚡ GB/T DC - вільний - 14.99 ₴/⚡
50.390323;30.286984;TOKA #738 EVoltiq Papirus (вул. Промислова, 1А, Білогородка, Київська обл.,);3;\n        \n         CCS 2 - вільний - 16.99 ₴/⚡ GB/T DC - вільний - 16.99 ₴/⚡ CHAdeMO - вільний - 16.99 ₴/⚡
50.342666;30.542992;TOKA #739 EVoltiq Art Mall (вул. Академіка Заболотного, 37, Київ);3;\n        \n         CCS 2 - вільний - 16.99 ₴/⚡ GB/T DC - вільний - 16.99 ₴/⚡ CHAdeMO - вільний - 16.99 ₴/⚡
49.201736;23.026551;ТОКА #745 Motel Chertur (Львівська обл., с. Явора вул. Широке 456);2;\n        \n         Type 2 Plug - вільний - 15.79 ₴/⚡ GB/T AC - вільний - 15.79 ₴/⚡
48.453314;24.548183;TOKA #740 Premium Club Hotel (Івано-Франківська обл. м.Яремче, вул. Сидора Ковпака 29-Б);3;\n        \n         GB/T AC - вільний - 17.99 ₴/⚡ Type 1 - вільний - 17.99 ₴/⚡ Type 2 Plug - вільний - 17.99 ₴/⚡
50.430538;30.284098;TOKA #747 Zahidnyi (Київська обл., с. Чайки, вул. Коцюбинського, буд. 8);2;\n        \n         Type 2 Plug - вільний - 12.99 ₴/⚡ Type 2 Plug - вільний - 12.99 ₴/⚡
49.228668;24.646829;TOKA #748 BRSM Fast Charger (вул. Львівська, 69-А, Дем'янів, Івано-Франківська обл.);4;\n        \n         CHAdeMO - вільний - 19.99 ₴/⚡ CCS 2 - вільний - 19.99 ₴/⚡ Type 2 Plug - вільний - 14.99 ₴/⚡ GB/T DC - вільний - 19.99 ₴/⚡
49.805806;30.196534;TOKA #960 EVoltiq Rybatskyi Khutir (Київська обл., Білоцерківський р-н, с/р Піщанська, автодорога Київ- Одеса 84км);3;\n        \n         CCS 2 - вільний - 18.99 ₴/⚡ GB/T DC - вільний - 18.99 ₴/⚡ CHAdeMO - вільний - 18.49 ₴/⚡
49.855986;24.029751;TOKA #749 Fabrik studio (м. Львів, вул. Дашкевича 3);1;\n        \n         Type 2 Plug - вільний - 13.49 ₴/⚡
49.796;24.038453;TOKA #752 Eco Status. ринок *Шувар* №2 (Ринок Шувар Львів, пр-т Святого Івана Павла ІІ, 4-Б);3;\n        \n         GB/T AC - вільний - 15.99 ₴/⚡ Type 1 - вільний - 15.99 ₴/⚡ Type 2 Plug - вільний - 15.99 ₴/⚡
50.640143;26.206527;TOKA #753 OVIS Soborna [Працюють всі порти] (м. Рівне вул. Соборна 434);3;\n        \n         GB/T AC - вільний - 13.49 ₴/⚡ Type 1 - вільний - 12.99 ₴/⚡ Type 2 Plug - вільний - 13.49 ₴/⚡
50.479835;25.892935;TOKA #755 BRSM Fast Charger (вул. Широка, 36, с. Молодаво Друге, Рівненська обл.);4;\n        \n         CHAdeMO - вільний - 16.99 ₴/⚡ CCS 2 - вільний - 17.99 ₴/⚡ Type 2 Plug - вільний - 14.99 ₴/⚡ GB/T DC - вільний - 17.99 ₴/⚡
50.55252;30.206702;TOKA #742 EVoltiq Nash Komfort (Київська обл., м. Буча, вул. Нове шосе, 16);3;\n        \n         GB/T AC - вільний - 12.99 ₴/⚡ Type 1 - вільний - 12.99 ₴/⚡ Type 2 Plug - зайнятий - 12.99 ₴/⚡
50.865747;24.190187;TOKA #756 Eco Status - OKKO Gas Station (вул. Володимирська, 3-Б, Устилуг, Волинська обл.);3;\n        \n         GB/T AC - вільний - 15.99 ₴/⚡ Type 1 - вільний - 15.99 ₴/⚡ Type 2 Plug - вільний - 15.99 ₴/⚡
50.455841;30.640102;TOKA #757 BC Avant (м. Київ, вул. Якова Гніздовського, буд. 9.);3;\n        \n         Type 2 Plug - вільний - 12.99 ₴/⚡ Type 1 - вільний - 12.99 ₴/⚡ Type 1 - вільний - 12.99 ₴/⚡
50.468607;30.463122;TOKA #704 UNIT.City (м. Київ, вулиця Дорогожицька, 3);2;\n        \n         Type 2 Plug - невідомий - 16.99 ₴/⚡ Type 1 - невідомий - 16.99 ₴/⚡
48.356405;24.426602;TOKA #1026 Hotel Podgore (Івано-Франківська обл., с. Поляниця (Буковель), вул. Вишня, 164 б);3;\n        \n         GB/T AC - вільний - 13.99 ₴/⚡ Type 1 - відключений - 13.99 ₴/⚡ Type 2 Plug - вільний - 13.99 ₴/⚡
50.510648;30.623833;TOKA #705 METRO (вул. Сержа Лифаря, 2-А, м. Київ);2;\n        \n         Type 2 Plug - відключений - 12.99 ₴/⚡ Type 1 - відключений - 12.99 ₴/⚡
48.349263;24.454313;TOKA #759 Carparosa Hotel & Restaurant (Урочище Чуров, 320 Поляница, Буковель, Івано-Франківська обл);2;\n        \n         Type 1 - вільний - 0.00 ₴/⚡ Type 2 Plug - вільний - 0.00 ₴/⚡
48.342536;24.533545;TOKA #1022 Patsorka (вул. Олексы Довбуша, 84, Татарів, Івано-Франківська обл.);3;\n        \n         GB/T AC - вільний - 16.99 ₴/⚡ Type 1 - вільний - 16.99 ₴/⚡ Type 2 Plug - вільний - 16.99 ₴/⚡
48.355602;24.419932;TOKA #761 MARION SPA (Івано-Франківська обл. с. Поляниця, Урочище Вишня, 486);2;\n        \n         Type 1 - вільний - 13.99 ₴/⚡ Type 2 Plug - зайнятий - 13.99 ₴/⚡
48.676781;25.497586;TOKA #762 Merry Land Fast Charger (Івано-Франківська обл., м. Городенка, вул. Височана, 1);4;\n        \n         CHAdeMO - вільний - 15.99 ₴/⚡ CCS 2/CCS 1 - вільний - 16.99 ₴/⚡ Type 2 - вільний - 12.99 ₴/⚡ GB/T DC - вільний - 16.99 ₴/⚡
48.584782;27.430546;TOKA #771 Myasna lavka (мкрн. Сонячний,   50, Новодністровськ, Чернівецька обл.);2;\n        \n         Type 2 Plug - вільний - 14.49 ₴/⚡ Type 1 - вільний - 14.49 ₴/⚡
46.48075;30.689881;TOKA #774 Odeski Tradytsiyi (м. Одеса вул. Михайла Грушевського, 30-г);2;\n        \n         GB/T AC - вільний - 12.99 ₴/⚡ Type 1 - зайнятий - 12.99 ₴/⚡
48.349364;24.43913;TOKA #775 MAFA Hotel  (вул. Стаїще, будинок 448, Поляниця, Івано-Франківська обл);3;\n        \n         GB/T AC - вільний - 13.99 ₴/⚡ Type 1 - вільний - 13.99 ₴/⚡ Type 2 Plug - вільний - 13.99 ₴/⚡
48.690512;26.597538;TOKA #776 KRAA (вул. Північна, 85, м. Кам’янець-Подільський, Хмельницька обл.);4;\n        \n         CHAdeMO - вільний - 14.49 ₴/⚡ CCS 2 - вільний - 14.49 ₴/⚡ CHAdeMO - вільний - 14.49 ₴/⚡ Type 1 - вільний - 12.99 ₴/⚡
50.45036;30.524503;TOKA #778 ();2;\n        \n         Type 2 Plug - вільний - 0.00 ₴/⚡ Type 1 - вільний - 0.00 ₴/⚡
48.472289;23.635445;TOKA #777 STELS OIL (Закарпатська обл, с. Синевир, буд. 1489);3;\n        \n         GB/T AC - вільний - 12.00 ₴/⚡ Type 1 - вільний - 12.00 ₴/⚡ Type 2 Plug - вільний - 12.00 ₴/⚡
50.398233;30.638299;TOKA #1004 Piramida Fast Charger (м. Київ, вул. Олександра Мишуги, 4);4;\n        \n         CHAdeMO - вільний - 15.99 ₴/⚡ CCS 2 - вільний - 15.99 ₴/⚡ Type 2 Plug - вільний - 12.99 ₴/⚡ GB/T DC - вільний - 15.99 ₴/⚡
48.72612;26.599812;TOKA #811 IN HOTEL (вул. Молодіжна, 31,  м. Кам'янець-Подільський, Хмельницька обл.);4;\n        \n         CHAdeMO - вільний - 15.00 ₴/⚡ CCS 2 - вільний - 16.00 ₴/⚡ Type 2 - вільний - 15.00 ₴/⚡ GB/T DC - вільний - 16.00 ₴/⚡
46.56942;30.798587;TOKA #785 KADORR (м. Одеса, вул. Марсельська, 35б);3;\n        \n         GB/T AC - вільний - 14.99 ₴/⚡ Type 1 - вільний - 14.99 ₴/⚡ Type 1 - вільний - 14.99 ₴/⚡
50.429943;30.521156;TOKA #786 Dilova 2b (м. Київ вул. Ділова, 2б);3;\n        \n         Type 2 - вільний - 10.50 ₴/⚡ Type 1 - вільний - 10.50 ₴/⚡ Type 1 - вільний - 10.50 ₴/⚡
50.4795;30.60366;TOKA #743 EVoltiq Voskresenskyi (вул. Петра Запорожця, 26А, м. Київ);3;\n        \n         CCS 2 - вільний - 16.99 ₴/⚡ GB/T DC - вільний - 16.99 ₴/⚡ CHAdeMO - вільний - 16.99 ₴/⚡
50.468985;30.522924;TOKA #787 Spasʹka 36 Fast Charger (м. Київ, вул. Спаська 36);4;\n        \n         CHAdeMO - вільний - 15.75 ₴/⚡ CCS 2 - вільний - 15.75 ₴/⚡ Type 2 Plug - вільний - 14.75 ₴/⚡ GB/T DC - вільний - 15.75 ₴/⚡
50.393562;30.667377;TOKA #790 Fromatoz (м. Київ, вул. Колекторна 38/40);1;\n        \n         Type 2 Plug - вільний - 0.00 ₴/⚡
51.059546;31.154082;TOKA #791 WOG Fast Charger (вул. Слов'янська, 53-а, Кіпті, Чернігівська обл. );4;\n        \n         CHAdeMO - вільний - 18.99 ₴/⚡ CCS 2 - вільний - 19.99 ₴/⚡ Type 2 - вільний - 15.99 ₴/⚡ GB/T DC - відключений - 19.99 ₴/⚡
50.601004;27.635937;TOKA #792 Zvyagel (Житомирська обл., м. Звягель, вул. Військової доблесті, 30/292);3;\n        \n         GB/T AC - відключений - 12.99 ₴/⚡ Type 1 - вільний - 12.99 ₴/⚡ Type 2 Plug - вільний - 12.99 ₴/⚡
50.753468;25.340098;TOKA#793 TSOU (м. Луцьк, просп. Перемоги, 1);3;\n        \n         GB/T AC - вільний - 12.99 ₴/⚡ Type 1 - вільний - 12.99 ₴/⚡ Type 2 Plug - вільний - 12.99 ₴/⚡
50.471132;30.522392;TOKA #794 Verkhniy Val 70-А Fast Charger (м. Київ, Верхній Вал, 70-А);4;\n        \n         CHAdeMO - вільний - 15.75 ₴/⚡ CCS 2 - вільний - 15.75 ₴/⚡ Type 2 Plug - вільний - 14.99 ₴/⚡ GB/T DC - вільний - 15.75 ₴/⚡
48.354388;24.415141;TOKA #801 Dovbushanka (Івано-Франківська обл., с. Поляниця, вул. Тернопільська);3;\n        \n         GB/T AC - невідомий - 0.00 ₴/⚡ Type 1 - невідомий - 0.00 ₴/⚡ Type 2 Plug - невідомий - 0.00 ₴/⚡
50.651937;30.408259;TOKA #795 Silpo Fast Charger (Київська обл., с. Старі Петрівці, вул. Святослава Князя, буд. 167-А);4;\n        \n         CHAdeMO - вільний - 19.99 ₴/⚡ CCS 2 - вільний - 19.99 ₴/⚡ Type 2 - вільний - 17.99 ₴/⚡ GB/T DC - вільний - 19.99 ₴/⚡
49.544932;25.598584;FASTER #796 NOVUS Fast Charger ( м. Тернопіль, вул. Перля, 3 );4;\n        \n         CHAdeMO - вільний - 17.99 ₴/⚡ CCS 2 - вільний - 17.99 ₴/⚡ Type 2 Plug - вільний - 16.99 ₴/⚡ GB/T DC - вільний - 17.99 ₴/⚡
46.575985;30.797148;TOKA #798 Silpo (м. Одеса, вул. Семена Палія, 93А);3;\n        \n         GB/T AC - вільний - 14.99 ₴/⚡ Type 1 - вільний - 14.99 ₴/⚡ Type 1 - зайнятий - 14.99 ₴/⚡
50.454656;30.634982;TOKA #2013 Prospekt Fast Charger (м. Київ, вул. Гната Хоткевича, 1-В);4;\n        \n         CHAdeMO - вільний - 17.99 ₴/⚡ CCS 2 - вільний - 18.99 ₴/⚡ Type 2 Plug - вільний - 16.99 ₴/⚡ GB/T DC - вільний - 18.99 ₴/⚡
48.446607;27.799031;TOKA #2007 Nova Poshta Fast Charger (вул. Покровська, 22, м. Могилів-Подільський, Вінницька область);4;\n        \n         CHAdeMO - вільний - 18.00 ₴/⚡ CCS 2/CCS 1 - вільний - 18.00 ₴/⚡ Type 2 Plug - вільний - 15.00 ₴/⚡ GB/T DC - вільний - 18.00 ₴/⚡
50.254306;30.547748;TOKA #800 Park Lake City (Київська обл., с. Підгірці, вул.Паркова, 19);3;\n        \n         GB/T AC - вільний - 14.99 ₴/⚡ Type 1 - зайнятий - 14.99 ₴/⚡ Type 2 Plug - зайнятий - 14.99 ₴/⚡
50.454304;30.452172;TOKA #814 AMPERA Home Station ЖК Crystal Park Tower (м. Київ, пр. Перемоги, 42);2;\n        \n         Type 2 Plug - вільний - 0.00 ₴/⚡ Type 2 Plug - вільний - 0.00 ₴/⚡
50.43475;30.501754;TOKA #818 Europassage [доступ обмежено] (м. Київ, вул.Сім'ї Прахових, 58/10);3;\n        \n         Type 1 - вільний - 12.99 ₴/⚡ Type 2 - вільний - 12.99 ₴/⚡ Type 1 - вільний - 12.99 ₴/⚡
46.44332;30.704923;TOKA #819 Budynok Mebliv Fast Charger (м. Одеса, пл. Бориса Дерев'янко, 2);4;\n        \n         CHAdeMO - вільний - 17.99 ₴/⚡ CCS 2 - вільний - 18.99 ₴/⚡ Type 2 Plug - вільний - 14.99 ₴/⚡ GB/T DC - вільний - 18.99 ₴/⚡
49.834737;24.010573;TOKA #821  LevCharge-Politech (м. Львів, вул. Степена Бандери, 24);3;\n        \n         GB/T AC - вільний - 14.99 ₴/⚡ Type 1 - зайнятий - 14.99 ₴/⚡ Type 2 Plug - вільний - 14.99 ₴/⚡
48.59333;35.334677;TOKA #2002 YANKO Fast Charger (Дніпропетровська обл., с. Пiщанка вул. Запорізька 51);4;\n        \n         CHAdeMO - вільний - 14.99 ₴/⚡ CCS 2 - вільний - 14.99 ₴/⚡ Type 2 - вільний - 12.99 ₴/⚡ GB/T DC - вільний - 14.99 ₴/⚡
50.506544;30.471933;TOKA #823 BRSM Fast Charger (вул. Лугова, 13, м. Київ);4;\n        \n         CHAdeMO - вільний - 15.99 ₴/⚡ CCS 2/CCS 1 - вільний - 15.99 ₴/⚡ Type 2 Plug - вільний - 12.99 ₴/⚡ GB/T DC - вільний - 15.99 ₴/⚡
49.784372;23.974216;TOKA #910 San Marco (Львівська обл., Львівський р-н, с. Сокільники, вул. Лесі Українки, 17);3;\n        \n         Type 2 Plug - вільний - 12.99 ₴/⚡ Type 1 - вільний - 12.99 ₴/⚡ GB/T AC - вільний - 12.99 ₴/⚡
50.422473;30.463981;TOKA #2010 NOVUS Fast Charger (м. Київ, просп. Валерія Лобановського, 4-д);4;\n        \n         CHAdeMO - вільний - 15.99 ₴/⚡ CCS 2 - вільний - 16.99 ₴/⚡ Type 2 Plug - вільний - 12.99 ₴/⚡ GB/T DC - вільний - 16.99 ₴/⚡
50.29415;30.695711;TOKA #917 Wish aqua & spa resort (вул. Набережна, 29. с. Вишеньки, Київська обл.);2;\n        \n         Type 2 Plug - вільний - 11.99 ₴/⚡ Type 2 Plug - вільний - 11.99 ₴/⚡
49.780838;24.090662;TOKA #879 EVoltiq Port Lviv (Львівська обл., с. Пасіки-Зубрицькі, вул. Дорожна, буд. 58);3;\n        \n         CCS 2 - вільний - 16.99 ₴/⚡ GB/T DC - вільний - 16.99 ₴/⚡ CHAdeMO - вільний - 16.49 ₴/⚡
46.416609;30.712141;TOKA #911 City Center (м. Одеса, просп. Небесної сотні, 2);3;\n        \n         GB/T AC - невідомий - 15.99 ₴/⚡ Type 1 - невідомий - 15.99 ₴/⚡ Type 1 - невідомий - 15.99 ₴/⚡
50.49068;30.528554;TOKA #913 Vitryla Oboloni (м. Київ, вул. Оболонська наб., 1, корп 1);3;\n        \n         GB/T AC - зайнятий - 12.79 ₴/⚡ Type 1 - вільний - 12.79 ₴/⚡ Type 2 Plug - вільний - 12.79 ₴/⚡
50.490605;30.52868;TOKA #914 Vitryla Oboloni (м. Київ, вул. Оболонська наб., 1, корп 1);2;\n        \n         Type 1 - вільний - 12.79 ₴/⚡ Type 2 Plug - вільний - 12.79 ₴/⚡
50.432112;30.456006;TOKA #915 UkrGazBank (м. Київ, вул. Єреванська, 1);2;\n        \n         Type 1 - вільний - 14.99 ₴/⚡ Type 2 Plug - вільний - 14.99 ₴/⚡
49.574591;25.638047;TOKA #829 KomfortMD Fast Charger (вул. Текстильна, 28-В, м, Тернопіль);4;\n        \n         CHAdeMO - вільний - 15.50 ₴/⚡ CCS 2 - вільний - 15.50 ₴/⚡ Type 2 Plug - вільний - 11.99 ₴/⚡ GB/T DC - вільний - 15.50 ₴/⚡
48.35559;24.426405;TOKA #1023 VILLA ELENA HOTEL & SPA by GreenLife (вул. Вишня, 164, Поляниця, Івано-Франківська обл);3;\n        \n         GB/T AC - невідомий - 16.99 ₴/⚡ Type 1 - невідомий - 16.99 ₴/⚡ Type 2 Plug - невідомий - 16.99 ₴/⚡
49.55619;25.597112;TOKA #826 UkrGazBank (м. Тернопіль, вул. Івана Франка, 23 );1;\n        \n         Type 2 Plug - зайнятий - 17.99 ₴/⚡
48.199533;36.027431;TOKA #830 Vasylkivka (с. Васильківка, вул. Українська, буд.11, Дніпропетровська обл.);1;\n        \n         Type 2 Plug - вільний - 12.99 ₴/⚡
49.437851;32.01141;TOKA #941 VIP MYYKA Fast Charger (вул. Ярославська, 7, Черкаси);4;\n        \n         CHAdeMO - вільний - 15.49 ₴/⚡ CCS 2 - вільний - 15.49 ₴/⚡ Type 2 Plug - вільний - 15.49 ₴/⚡ GB/T DC - вільний - 15.49 ₴/⚡
48.54312;31.655152;TOKA #832 GULDAS TRADE Fast Charger (Кіровоградська обл., Олександрівка, вул. Садова 1А);4;\n        \n         CHAdeMO - вільний - 17.99 ₴/⚡ CCS 2 - вільний - 18.99 ₴/⚡ Type 2 Plug - вільний - 14.99 ₴/⚡ GB/T DC - вільний - 18.99 ₴/⚡
48.357247;24.413404;TOKA #809 Zaporizka Sich (урочище Вишні 319, c. Поляниця, Івано-Франківська обл.);2;\n        \n         Type 1 - вільний - 13.99 ₴/⚡ Type 2 Plug - вільний - 13.99 ₴/⚡
48.707881;26.570509;TOKA #833 (вул. Голосківське шосе, 12б, м Каменец-Подольский, Хмельницька обл.);2;\n        \n         Type 2 Plug - невідомий - 11.49 ₴/⚡ Type 1 - невідомий - 10.99 ₴/⚡
48.690503;26.597613;TOKA #834 (вул. Північна, 85, м Каменец-Подольский, Хмельницька обл.);2;\n        \n         Type 2 Plug - невідомий - 12.49 ₴/⚡ Type 1 - невідомий - 11.99 ₴/⚡
49.280005;23.497744;TOKA #835 Eco Status - Higina Spa (вул. Бориславська, 29-А, м. Трускавець, Львівська обл.);2;\n        \n         Type 2 Plug - вільний - 15.99 ₴/⚡ Type 1 - вільний - 15.99 ₴/⚡
46.483517;30.685553;TOKA #919 Active Energy Service (м. Одеса  вул. Проценко 52);3;\n        \n         GB/T AC - вільний - 14.88 ₴/⚡ Type 1 - вільний - 14.88 ₴/⚡ Type 2 Plug - вільний - 14.88 ₴/⚡
48.917884;24.717094;TOKA #920 Hotel Nadiya (м. Івано-Франківськ, вул. Незалежностi, 40);3;\n        \n         GB/T AC - невідомий - 13.99 ₴/⚡ Type 1 - невідомий - 13.99 ₴/⚡ Type 2 Plug - невідомий - 13.99 ₴/⚡
48.369037;24.402695;TOKA #802 Glacier (Івано-Франківська обл., с. Поляниця, курорт «Буковель», район озера Молодості);3;\n        \n         GB/T AC - вільний - 13.99 ₴/⚡ Type 1 - вільний - 13.99 ₴/⚡ Type 2 Plug - вільний - 13.99 ₴/⚡
48.661098;30.809887;TOKA #921 Cafe&hotel Villa Maria (Кіровоградська обл, смт. Новоархангельськ, вул Івана Франка 50/2);3;\n        \n         GB/T AC - вільний - 15.99 ₴/⚡ Type 1 - вільний - 15.99 ₴/⚡ Type 2 Plug - вільний - 15.99 ₴/⚡
50.420422;30.530284;TOKA #520 Lypky (Lypky);1;\n        \n         Type 2 Plug - вільний - 8.88 ₴/⚡
49.768303;28.731716;TOKA #912 AKW Ukrainain Kaolin Company (Вінницька область, Хмільницький район, смт Глухівці, вул. Заводська 1);2;\n        \n         Type 2 Plug - зайнятий - 0.00 ₴/⚡ Type 2 Plug - вільний - 0.00 ₴/⚡
46.477849;30.764866;TOKA #922 NEMO hotel (м. Одеса, пляж Ланжерон, 25 );3;\n        \n         GB/T AC - вільний - 14.99 ₴/⚡ Type 1 - вільний - 14.99 ₴/⚡ Type 2 Plug - вільний - 14.99 ₴/⚡
49.545315;25.591658;TOKA #881 EVoltiq Zbruch (м. Тернопіль, вул. Торговиця, 11);3;\n        \n         CCS 2 - вільний - 17.49 ₴/⚡ GB/T DC - вільний - 17.49 ₴/⚡ CHAdeMO - вільний - 16.49 ₴/⚡
50.434402;30.648289;TOKA #882 EVoltiq Alma-Atinska (м. Київ, вул. Алма-Атинська 2/1);3;\n        \n         CCS 2 - вільний - 18.99 ₴/⚡ GB/T DC - вільний - 18.99 ₴/⚡ CHAdeMO - вільний - 17.99 ₴/⚡
50.586262;26.249022;TOKA #923 Private station (м.Рівне, вул. Трипільска,2);2;\n        \n         Type 1 - вільний - 0.00 ₴/⚡ Type 2 Plug - вільний - 0.00 ₴/⚡
49.767393;24.086956;TOKA #931 Soprano Inn Fast Charger (Кільцева доророга, 8, Пасіки-Зубрицькі, Львівська обл.);4;\n        \n         CCS 2 - вільний - 19.99 ₴/⚡ GB/T DC - вільний - 19.99 ₴/⚡ Type 2 - вільний - 16.99 ₴/⚡ CHAdeMO - вільний - 18.99 ₴/⚡
50.4951734;30.51245;TOKA #2052 Fast Charger Archipenka 6 [SILPO] (м. Київ, вул. Олександра Архипенка, 6);4;\n        \n         CHAdeMO - вільний - 15.75 ₴/⚡ CCS 2 - вільний - 15.75 ₴/⚡ Type 2 Plug - вільний - 15.00 ₴/⚡ GB/T DC - вільний - 15.75 ₴/⚡
50.461492;30.184256;TOKA #926 BELGRAVIA (вул. Привітна, 1-А, с. Дмитрівка, Київська обл.);3;\n        \n         GB/T AC - вільний - 0.00 ₴/⚡ Type 1 - вільний - 0.00 ₴/⚡ Type 2 Plug - вільний - 0.00 ₴/⚡
48.354438;24.414008;TOKA #930 Marmaros (Івано-Франківська обл., с.Поляниця);3;\n        \n         GB/T AC - вільний - 0.00 ₴/⚡ Type 1 - вільний - 0.00 ₴/⚡ Type 2 Plug - вільний - 0.00 ₴/⚡
46.57244;30.805216;TOKA #932 Liski (вул. Академіка Сахарова, 20/1 м. Одеса);3;\n        \n         Type 1 - вільний - 14.99 ₴/⚡ Type 1 - вільний - 14.99 ₴/⚡ Type 1 - вільний - 14.99 ₴/⚡
50.411391;30.45724;TOKA #935  ();2;\n        \n         GB/T AC - вільний - 0.00 ₴/⚡ Type 2 Plug - вільний - 0.00 ₴/⚡
50.277996;28.714342;TOKA #937 Volkswagen Auto (м. Житомир, вул. Коростишівська, 1-А);3;\n        \n         GB/T AC - вільний - 13.99 ₴/⚡ Type 1 - вільний - 13.99 ₴/⚡ Type 2 Plug - вільний - 13.99 ₴/⚡
50.378135;30.703316;TOKA #938  Head office (вул. Володимира Заболотного, 1А, Київ);3;\n        \n         GB/T AC - вільний - 12.99 ₴/⚡ Type 1 - вільний - 12.99 ₴/⚡ Type 2 Plug - вільний - 12.99 ₴/⚡
49.243263;23.337395;TOKA #925 Lyubokray (Львівська область смт. Східниця вул. Бориславська 81 Б);3;\n        \n         GB/T AC - вільний - 15.99 ₴/⚡ Type 1 - вільний - 15.99 ₴/⚡ Type 2 Plug - вільний - 15.99 ₴/⚡
50.482642;30.487625;TOKA #944 Tw12ve Fast Charger (м. Київ, вул.Новокостянтинівська, 12);2;\n        \n         CCS 2 - вільний - 16.99 ₴/⚡ CCS 2 - вільний - 16.99 ₴/⚡
50.348388;30.475599;TOKA #946 Private station (м. Київ,  вул. Метрологічна, 52А);2;\n        \n         GB/T AC - зайнятий - 0.00 ₴/⚡ Type 2 Plug - вільний - 0.00 ₴/⚡
48.675757;26.610892;TOKA #964 Nova Budova-2 (Хмельницька обл., м. Кам’янець-Подільський вул. Івана Виговського, 4/2);2;\n        \n         Type 2 - вільний - 12.50 ₴/⚡ Type 2 - вільний - 12.50 ₴/⚡
50.769716;25.349399;TOKA #961 Autoservis (м.Луцьк. вул Ківерцівська 32б);3;\n        \n         GB/T AC - вільний - 12.99 ₴/⚡ Type 1 - вільний - 12.99 ₴/⚡ Type 2 Plug - вільний - 12.99 ₴/⚡
50.487324;30.517865;TOKA #963 МЕТRО  (м. Київ, просп. Степана Бандери, 26);3;\n        \n         Type 2 Plug - вільний - 12.99 ₴/⚡ Type 2 - вільний - 12.99 ₴/⚡ Type 1 - вільний - 12.99 ₴/⚡
49.573742;25.617625;TOKA #897 Bezpeka YUMOS LLC [JBE] Solar/Diesel Gen (вул. Текстильна, 28, м, Тернопіль);3;\n        \n         Type 2 Plug - вільний - 14.99 ₴/⚡ Type 1 - вільний - 14.99 ₴/⚡ GB/T AC - вільний - 14.99 ₴/⚡
50.746135;25.427251;TOKA #2040 WEST AUTO HUB Fast Charger (Волинська обл., с. Струмівка , вул. Рівненська, 74);3;\n        \n         CCS 2 - вільний - 15.99 ₴/⚡ CHAdeMO - вільний - 15.99 ₴/⚡ Type 2 Plug - вільний - 12.99 ₴/⚡
49.22067;28.563037;TOKA #955 HYUNDAI Fast Charger (вул. Немирівське шосе, 213 А, м. Вінниця);4;\n        \n         CCS 2 - вільний - 16.99 ₴/⚡ GB/T DC - вільний - 16.99 ₴/⚡ Type 2 Plug - вільний - 13.99 ₴/⚡ Type 1 - зайнятий - 13.99 ₴/⚡
45.428495;29.578457;TOKA #980 Moncastro Glamping (Одеська обл., Ізмаїльський район, територія Вилківської міської раді в урочищі Вилківські піски квартал 10,11);3;\n        \n         GB/T AC - вільний - 12.99 ₴/⚡ Type 1 - вільний - 12.99 ₴/⚡ Type 2 Plug - вільний - 12.99 ₴/⚡
49.830249;23.941422;TOKA #981 Chehovych Roastery (м. Львів, вул. Данила Апостола, 14-А);3;\n        \n         GB/T AC - вільний - 12.99 ₴/⚡ Type 1 - вільний - 12.99 ₴/⚡ Type 2 Plug - вільний - 12.99 ₴/⚡
49.803565;24.073252;TOKA #982 Pasichna 171 (вул. Пасічна, 171, м. Львів, Львівська обл.);3;\n        \n         Type 2 - вільний - 14.99 ₴/⚡ Type 1 - зайнятий - 14.99 ₴/⚡ Type 2 Plug - вільний - 14.99 ₴/⚡
50.423615;30.43862;TOKA #983 AvtoZerkala (м. Київ, вул. Новопольова, 67-а);2;\n        \n         Type 1 - вільний - 9.00 ₴/⚡ Type 2 Plug - вільний - 9.00 ₴/⚡
49.798068;24.048139;TOKA #993  Eco Status -Shuvar (просп. Червоної Калини, 36, Львів);3;\n        \n         Type 1 - зайнятий - 15.99 ₴/⚡ Type 2 Plug - зайнятий - 15.99 ₴/⚡ Type 2 Plug - вільний - 15.99 ₴/⚡
50.624823;26.245636;TOKA #998  OnCharger (м. Рівне, вул. Шевченка , буд. 83);1;\n        \n         Type 2 Plug - вільний - 9.99 ₴/⚡
50.395553;30.619444;TOKA #999 Bazhana 10 (м. Київ просп. Бажана, 10);3;\n        \n         GB/T AC - зайнятий - 9.00 ₴/⚡ Type 1 - зайнятий - 9.00 ₴/⚡ Type 2 Plug - зайнятий - 9.00 ₴/⚡
50.488;30.474645;TOKA #996 Freedom Hall Fast Charger (м. Київ, вул. Кирилівська, 134);3;\n        \n         CCS 2 - вільний - 15.99 ₴/⚡ GB/T DC - вільний - 15.99 ₴/⚡ CHAdeMO - вільний - 14.99 ₴/⚡
48.473908;34.985688;TOKA #1012 NVP RICH Fast Charger (м. Дніпро вул. Мічурина 9);2;\n        \n         CCS 2 - вільний - 15.99 ₴/⚡ GB/T DC - вільний - 15.99 ₴/⚡
49.074764;33.405936;TOKA #1038 SEM UKRAINA (Полтавська обл., м. Кременчук, вул. Небесної Сотні, 66-Г);2;\n        \n         Type 1 - вільний - 13.99 ₴/⚡ Type 1 - вільний - 13.99 ₴/⚡
50.429804;30.484354;TOKA #893 Private station (Київ, вул. Генерала Шаповала, 2);2;\n        \n         Type 2 - вільний - 0.00 ₴/⚡ Type 2 Plug - вільний - 0.00 ₴/⚡
50.473819;30.516497;TOKA #2011 Turivska 40 Fast Charger (м. Київ, вул. Турівська, 40);4;\n        \n         CHAdeMO - вільний - 15.75 ₴/⚡ CCS 2 - вільний - 15.75 ₴/⚡ Type 2 Plug - вільний - 15.00 ₴/⚡ GB/T DC - вільний - 15.75 ₴/⚡
49.807466;23.978358;TOKA #1027 Victoria Gardens (м. Львів, вул. Кульпарківська, 226-А);3;\n        \n         Type 1 - вільний - 13.99 ₴/⚡ Type 1 - вільний - 13.99 ₴/⚡ Type 2 - вільний - 13.99 ₴/⚡
49.790903;24.057609;TOKA #969 FAST LevCharge - Sykhiv (просп. Червоної Калини, 66, м. Львів);3;\n        \n         CCS 2 - вільний - 18.99 ₴/⚡ GB/T DC - вільний - 18.99 ₴/⚡ CHAdeMO - вільний - 17.99 ₴/⚡
50.431065;30.664154;TOKA #883 EVoltiq Boryspilska (м. Київ, вул. Бориспільська 9);3;\n        \n         CCS 2 - вільний - 17.99 ₴/⚡ GB/T DC - вільний - 17.99 ₴/⚡ CHAdeMO - вільний - 16.99 ₴/⚡
50.615916;26.216436;TOKA #836 Private station (Рівненська область  Рівненський Р-н Рівне Тараса Козлишина 13);3;\n        \n         GB/T AC - вільний - 0.00 ₴/⚡ Type 1 - вільний - 0.00 ₴/⚡ Type 2 Plug - вільний - 0.00 ₴/⚡
50.35209;30.4925;TOKA #1033 MHP (м. Київ, вул. Академіка Заболотного, 158);2;\n        \n         Type 2 - вільний - 8.99 ₴/⚡ Type 2 Plug - вільний - 8.99 ₴/⚡
49.313957;28.48703;TOKA #2019 Market+ Fast Charger (Вінницька обл., с. Стрижавка, вул. Київська, 222);3;\n        \n         CCS 2 - вільний - 16.99 ₴/⚡ CHAdeMO - вільний - 15.99 ₴/⚡ Type 2 Plug - вільний - 13.99 ₴/⚡
49.601464;34.532899;TOKA #957 Ddrive Fast Charger (м. Полтава, вул. Зінківська 6-а);2;\n        \n         CCS 2 - невідомий - 16.49 ₴/⚡ GB/T DC - невідомий - 16.49 ₴/⚡
50.472908;30.454127;TOKA #3008 WOG Gas Station Fast Charger (вул. Юрія Іллєнка, 50а, м. Київ);3;\n        \n         CCS 2 - вільний - 15.90 ₴/⚡ CHAdeMO - вільний - 15.90 ₴/⚡ Type 2 Plug - вільний - 12.90 ₴/⚡
49.816782;23.925388;TOKA #1030 ShypShyna (вул. Городоцька, 357, м. Львів);3;\n        \n         GB/T AC - вільний - 11.99 ₴/⚡ Type 1 - вільний - 11.99 ₴/⚡ Type 2 Plug - вільний - 11.99 ₴/⚡
49.314089;28.486963;TOKA #2016 Market+ Fast Charger (Вінницька обл., с. Стрижавка, вул. Київська, 222);2;\n        \n         CCS 2/GBT DC - вільний - 16.99 ₴/⚡ CCS 2/GBT DC - вільний - 16.99 ₴/⚡
51.316432;26.618037;TOKA #976 Treid Avto [Piano coffee] (Рівненська обл., м. Сарни, вул. Варшавська 4-а);3;\n        \n         Type 1 - вільний - 13.99 ₴/⚡ Type 1 - вільний - 13.99 ₴/⚡ Type 2 Plug - вільний - 13.99 ₴/⚡
48.912365;24.739589;TOKA #2003 Intelkom-1 Fast Charger (м. Івано-Франківськ, вул. Микитинецька 7е,7є);4;\n        \n         CCS 2 - вільний - 16.99 ₴/⚡ GB/T DC - вільний - 16.99 ₴/⚡ CHAdeMO - вільний - 16.99 ₴/⚡ Type 2 Plug - вільний - 13.99 ₴/⚡
50.418981;30.494707;TOKA #977 Private (вул. М. Амосова 4);1;\n        \n         Type 2 - зайнятий - 0.00 ₴/⚡
47.900309;30.126759;TOKA #1036 Archepytivka Fast Charger (Одеська обл., Любашівський р-н., с. Арчепитівка, вул. Дачна);3;\n        \n         CCS 2 - вільний - 16.99 ₴/⚡ GB/T DC - вільний - 16.99 ₴/⚡ CHAdeMO - вільний - 16.99 ₴/⚡
47.582022;34.34517;TOKA #812 Private station ();3;\n        \n         Type 2 Plug - невідомий - 0.00 ₴/⚡ GB/T AC - невідомий - 0.00 ₴/⚡ GB/T AC - невідомий - 0.00 ₴/⚡
0.0;0.0;TOKA #813 Private station ();3;\n        \n         GB/T AC - зайнятий - 0.00 ₴/⚡ GB/T AC - зайнятий - 0.00 ₴/⚡ Type 2 Plug - вільний - 0.00 ₴/⚡
50.378421;30.701734;TOKA SERVICE #900 ();1;\n        \n         Type 2 Plug - вільний - 0.00 ₴/⚡
50.28715;28.815156;TOKA #3000 WOG Gas Station Fast Charger ( Житомирська обл., с. Глибочиця, автодорога Київ-Чоп км 127+990 (праворуч));3;\n        \n         CCS 2/GBT DC - вільний - 16.90 ₴/⚡ CCS 2/GBT DC - вільний - 16.90 ₴/⚡ Type 2 Plug - вільний - 13.90 ₴/⚡
50.28685;28.815156;TOKA #3003 WOG Gas Station Fast Charger ( Житомирська обл., с. Глибочиця, автодорога Київ-Чоп км 127+990 (праворуч));3;\n        \n         CCS 2/GBT DC - вільний - 16.90 ₴/⚡ CHAdeMO - вільний - 16.90 ₴/⚡ Type 2 Plug - вільний - 13.90 ₴/⚡
50.28705;28.815156;TOKA #3001 WOG Gas Station Fast Charger ( Житомирська обл., с. Глибочиця, автодорога Київ-Чоп км 127+990 (праворуч));3;\n        \n         CCS 2/GBT DC - вільний - 16.90 ₴/⚡ CHAdeMO - вільний - 16.90 ₴/⚡ Type 2 Plug - вільний - 13.90 ₴/⚡
50.283496;30.346171;TOKA #990 EVoltiq Dolyna Fey (Боярське лісництво, кв. 103, виділ 9, буд. 1, м. Боярка, Київська обл.);3;\n        \n         CCS 2 - вільний - 17.99 ₴/⚡ GB/T DC - вільний - 17.99 ₴/⚡ CHAdeMO - вільний - 16.99 ₴/⚡
50.457797;30.629949;TOKA #1041 Krakowska 27-A (м. Київ, вул. Краківська, 27-А);3;\n        \n         GB/T AC - вільний - 10.50 ₴/⚡ Type 1 - вільний - 10.50 ₴/⚡ Type 2 Plug - зайнятий - 10.50 ₴/⚡
50.401542;30.630118;TOKA #1042 Sribnokilska 3-A (м. Київ вул. Срібнокільська 3а);3;\n        \n         GB/T AC - зайнятий - 9.00 ₴/⚡ Type 1 - зайнятий - 9.00 ₴/⚡ Type 2 Plug - зайнятий - 9.00 ₴/⚡
48.943031;24.728774;TOKA #2004 Intelkom-2 Fast Charger (вул.  Максимовича  15  м-15с,  м.  Івано-Франківськ);4;\n        \n         CCS 2 - вільний - 16.99 ₴/⚡ GB/T DC - вільний - 16.99 ₴/⚡ CHAdeMO - вільний - 16.99 ₴/⚡ Type 2 Plug - вільний - 13.99 ₴/⚡
50.604201;26.401877;TOKA #577 OKKO Gas Station Fast Charger (Рівненська обл., с. Біла Криниця, вул. Рівненська, 112);3;\n        \n         CCS 2 - вільний - 16.99 ₴/⚡ CCS 2 - вільний - 16.99 ₴/⚡ Type 2 Plug - вільний - 12.99 ₴/⚡
48.322493;24.47217;TOKA #973 Skogur Home & Resort (Івано-Франківська обл., Надвірнянський район, с. Яблуниця, вул. Діл, 176-Д);3;\n        \n         GB/T AC - вільний - 17.99 ₴/⚡ Type 1 - вільний - 17.99 ₴/⚡ Type 2 Plug - вільний - 17.99 ₴/⚡
50.378345;30.70303;TOKA #2014 Head office Fast Charger (вул. Володимира Заболотного, 1А, Київ);4;\n        \n         CHAdeMO - вільний - 15.99 ₴/⚡ CCS 2/CCS 1 - вільний - 15.99 ₴/⚡ Type 2 - вільний - 12.99 ₴/⚡ GB/T DC - вільний - 15.99 ₴/⚡
50.28675;28.815156;TOKA #3004 WOG Gas Station ( Житомирська обл., с. Глибочиця, автодорога Київ-Чоп км 127+990 (праворуч));3;\n        \n         GB/T AC - вільний - 13.90 ₴/⚡ Type 1 - вільний - 13.90 ₴/⚡ Type 2 Plug - вільний - 13.90 ₴/⚡
49.09073;33.42574;TOKA #2017 City Mall Fast Charger (вул. Київська, 5-А, м. Кременчук, Полтавська обл.);2;\n        \n         CCS 2 - вільний - 15.99 ₴/⚡ GB/T DC - вільний - 15.99 ₴/⚡
0.0;0.0;TOKA #1054 ();1;\n        \n         Type 2 - невідомий - 0.00 ₴/⚡
50.28695;28.815156;TOKA #3002 WOG Gas Station Fast Charger ( Житомирська обл., с. Глибочиця, автодорога Київ-Чоп км 127+990 (праворуч));3;\n        \n         CCS 2/GBT DC - вільний - 16.90 ₴/⚡ CCS 2/GBT DC - вільний - 16.90 ₴/⚡ Type 2 Plug - вільний - 13.90 ₴/⚡
50.627416;30.421601;TOKA #1056 PARTS LAND TESLA (Київська обл., с. Нові Петрівці, вул. Ягідна 3-А);3;\n        \n         GB/T AC - вільний - 11.11 ₴/⚡ Type 1 - вільний - 11.11 ₴/⚡ Type 2 Plug - вільний - 11.11 ₴/⚡
50.394868;24.237507;TOKA #2023 FAST LevCharge - Krystynopil  (просп. Тараса Шевченка, 5-а, м. Червоноград, Львівська обл.);3;\n        \n         CCS 2 - вільний - 17.99 ₴/⚡ CHAdeMO - вільний - 16.99 ₴/⚡ Type 2 Plug - вільний - 14.99 ₴/⚡
50.252346;28.658211;TOKA #1098 Eko-Market Fast Charger (вул. Мала Бердичівська, 2/7, м. Житомир);3;\n        \n         CCS 2 - вільний - 17.99 ₴/⚡ CHAdeMO - вільний - 16.99 ₴/⚡ Type 2 Plug - вільний - 13.99 ₴/⚡
50.329709;26.533147;TOKA #1076 Mebleva (Острог, Рівненська область, Вул. Східна, 82);3;\n        \n         GB/T AC - вільний - 11.90 ₴/⚡ Type 1 - вільний - 11.90 ₴/⚡ Type 2 Plug - вільний - 11.90 ₴/⚡
49.843678;24.006441;TOKA #2030 FAST LevCharge Velyka Brytaniya (вул. Шевченко, 25,  м. Львів);3;\n        \n         CCS 2 - вільний - 18.99 ₴/⚡ CHAdeMO - вільний - 17.99 ₴/⚡ Type 2 Plug - вільний - 15.99 ₴/⚡
50.43167;30.487839;TOKA #1058 Market operator (м. Київ, вул. Мокра, 14 Б);3;\n        \n         GB/T AC - вільний - 12.70 ₴/⚡ Type 1 - зайнятий - 12.70 ₴/⚡ Type 2 Plug - зайнятий - 12.70 ₴/⚡
50.324732;30.569507;TOKA #1051 Olympic base [тільки для відвідувачів центру] ( м. Київ, Столичне шосе, 19);1;\n        \n         Type 2 Plug - вільний - 12.99 ₴/⚡
48.354069;24.419786;TOKA #1069 Premium Hotel&SPA (Івано-Франківська обл., Буковель с. Паляниця, вул. Вишня, 592);3;\n        \n         GB/T AC - вільний - 15.99 ₴/⚡ Type 1 - вільний - 15.99 ₴/⚡ Type 2 Plug - відключений - 15.99 ₴/⚡
50.324817;30.569608;TOKA #1053 Olympic base [тільки для відвідувачів центру] ( м. Київ, Столичне шосе, 19);1;\n        \n         Type 2 Plug - вільний - 12.99 ₴/⚡
50.324832;30.569617;TOKA #1055 Olympic base [тільки для відвідувачів центру] (м. Київ, Столичне шосе, 19);1;\n        \n         Type 2 Plug - вільний - 12.99 ₴/⚡
50.620661;26.229743;TOKA #1081 Optima Collection Bergschloss Rivne (вул. Петра Могили, 14, м. Рівне);3;\n        \n         GB/T AC - невідомий - 12.99 ₴/⚡ Type 1 - невідомий - 12.99 ₴/⚡ Type 2 Plug - невідомий - 12.99 ₴/⚡
50.423422;30.427348;TOKA #1083 Otrada (м. Київ, просп. Відрадний, 93/2);3;\n        \n         GB/T AC - вільний - 12.99 ₴/⚡ Type 1 - вільний - 12.99 ₴/⚡ Type 2 Plug - вільний - 12.99 ₴/⚡
46.957616;31.988633;TOKA #1085 Private station (м. Миколаїв, вул. Радісна 9);3;\n        \n         Type 2 - вільний - 0.00 ₴/⚡ Type 2 Plug - вільний - 0.00 ₴/⚡ Type 2 Plug - вільний - 0.00 ₴/⚡
46.957616;31.988633;TOKA #1086 Private station (м. Миколаїв, вул. Радісна 9);2;\n        \n         Type 2 Plug - вільний - 0.00 ₴/⚡ Type 2 Plug - вільний - 0.00 ₴/⚡
50.462638;30.495297;TOKA #1088 Mirax (вул. Глибочицька, 43, м. Київ);3;\n        \n         GB/T AC - вільний - 12.99 ₴/⚡ Type 1 - вільний - 12.99 ₴/⚡ Type 2 Plug - вільний - 12.99 ₴/⚡
49.865016;24.03014;TOKA #1092 AZUZ-Linkolna (м. Львів, вул. Авраама Лінкольна, 8);3;\n        \n         GB/T AC - вільний - 14.99 ₴/⚡ Type 1 - вільний - 14.99 ₴/⚡ Type 2 Plug - вільний - 14.99 ₴/⚡
50.43598;30.622879;TOKA #1072 Comfort Town - Sport Life [тільки для мешканців] (м. Київ вул. Регенераторна, 4-б);3;\n        \n         GB/T AC - вільний - 10.50 ₴/⚡ Type 1 - зайнятий - 10.50 ₴/⚡ Type 2 Plug - вільний - 10.50 ₴/⚡
48.352598;29.124756;TOKA #1091 (Коріатовичів,25);2;\n        \n         Type 2 - невідомий - 12.50 ₴/⚡ Type 2 - невідомий - 12.50 ₴/⚡
48.433613;24.570038;TOKA #1049 Wellland (вул. Івана Франка, 12/1а, Яремче, Івано-Франківська обл.);3;\n        \n         GB/T AC - вільний - 16.99 ₴/⚡ Type 1 - вільний - 16.99 ₴/⚡ Type 2 Plug - вільний - 16.99 ₴/⚡
49.209117;23.676427;TOKA #1095 EcoStatus - Shepilska (урочище Шепільське, 1, Довголука, Львівська обл.);2;\n        \n         Type 2 Plug - вільний - 15.99 ₴/⚡ Type 1 - вільний - 15.99 ₴/⚡
48.43372;22.762397;TOKA #1093 BRSM Fast Charger (вул. Мукачівська, 1В, с. Верхній Коропець, Закарпатська обл.);3;\n        \n         CCS 2 - вільний - 16.99 ₴/⚡ GB/T DC - вільний - 16.99 ₴/⚡ CHAdeMO - вільний - 16.99 ₴/⚡
50.452322;30.640336;TOKA #991 EVoltiq FIM Center (м. Київ, вул. Якова Гніздовського, 1);3;\n        \n         GB/T AC - вільний - 12.99 ₴/⚡ Type 1 - вільний - 12.99 ₴/⚡ Type 2 Plug - вільний - 12.99 ₴/⚡
49.601363;34.533035;TOKA #2041 Ddrive Fast Charger (м. Полтава, вул. Зінківська 6-а);2;\n        \n         GB/T DC - невідомий - 16.48 ₴/⚡ CCS 2 - невідомий - 16.90 ₴/⚡
49.314112;28.487055;TOKA #2043 Market+ Fast Charger (Вінницька обл., с. Стрижавка, вул. Київська, 222);2;\n        \n         CCS 2/GBT DC - вільний - 16.99 ₴/⚡ CHAdeMO - вільний - 15.99 ₴/⚡
50.573186;30.215823;TOKA #1068 Synergia (Київська обл. смт. Гостомель, вул. Мирна, 3);3;\n        \n         GB/T AC - вільний - 12.99 ₴/⚡ Type 1 - вільний - 12.99 ₴/⚡ Type 2 Plug - вільний - 12.99 ₴/⚡
50.948921;28.643924;TOKA #1099 SVD (Житомирська обл., м. Коростень, вул. Грушевського б. 9-а);3;\n        \n         GB/T AC - невідомий - 14.99 ₴/⚡ Type 1 - невідомий - 14.99 ₴/⚡ Type 2 Plug - невідомий - 14.99 ₴/⚡
48.357282;24.423504;TOKA #1025 Didukh Eco Hotel & Spa (Івано-Франківська обл., с. Поляниця, вулиця Урочище Вишні 431);2;\n        \n         GB/T AC - вільний - 16.99 ₴/⚡ Type 2 Plug - вільний - 16.99 ₴/⚡
48.198974;22.62431;TOKA #1101 Magnum (вул. Богдана Хмельницького, 112/4, Берегове, Закарпатська обл.);2;\n        \n         Type 1 - вільний - 18.99 ₴/⚡ Type 2 Plug - вільний - 18.99 ₴/⚡
